school,county,lat,lon,complvl_num,conf,complvl
ABERNATHY,hale,33.83135,-101.847263,5,2,District
ABILENE,taylor,32.455757,-99.755994,3,5,District
ACADEMY,bell,30.982934,-97.345646,25,2,District
ADVANTAGE ACADEMY,dallas,32.71197,-97.017661,24,1,District
AGUA DULCE,nueces,27.784884,-97.912488,32,1,District
AKINS,travis,30.14988,-97.801206,16,5,District
ALAMO HEIGHTS,bexar,29.491267,-98.464634,28,4,District
ALBA-GOLDEN,wood,32.75912,-95.586291,17,2,District
ALDINE,brewster,30.371983,-103.665798,18,5,District
ALEDO,parker,32.712426,-97.61627,6,4,District
ALICE,jim wells,27.755106,-98.051045,31,4,District
ALIEF EARLY COLLEGE,harris,29.733995,-95.574174,18,5,District
ALLEN,collin,33.109586,-96.660852,8,5,District
ALPHA CHARTER SCHOOL,dallas,32.913584,-96.63931,12,2,District
ALPINE,brewster,30.371983,-103.665798,1,2,District
ALTO,cherokee,31.660167,-95.073495,21,2,District
ALVARADO,johnson,32.390142,-97.206673,15,4,District
ALVIN,brazoria,29.417432,-95.25215,24,5,District
ALVORD,wise,33.354728,-97.7055,14,1,District
AMARILLO,randall,35.166975,-101.905065,2,5,District
AMERICAS,el paso,31.729613,-106.277371,1,5,District
ANAHUAC,chambers,29.770692,-94.676059,24,3,District
ANDERSON,travis,30.375754,-97.753617,16,5,District
ANDRESS,andrews,32.325672,-102.56782,1,4,District
ANDREWS,andrews,32.325672,-102.56782,4,4,District
ANGLETON,brazoria,29.199661,-95.416688,24,4,District
ANNA,collin,33.360926,-96.550882,15,2,District
ANSON,jones,32.752976,-99.895915,4,2,District
ANTHONY,el paso,31.99183,-106.597301,3,3,District
ANTON,van zandt,32.545112,-95.887853,4,1,District
APPLE SPRINGS,trinity,31.225009,-94.970723,23,1,District
ARANSAS PASS,san patricio,27.913187,-97.167905,30,3,District
ARCHER CITY,archer,33.589093,-98.630853,14,1,District
ARGYLE,denton,33.107167,-97.185452,13,2,District
ARLINGTON,tarrant,32.72031,-97.11584,7,5,District
ARLINGTON HEIGHTS,tarrant,32.730843,-97.385965,8,4,District
ARP,smith,32.229632,-95.059236,19,2,District
ASPERMONT,stonewall,33.138517,-100.221872,11,1,District
ATASCOCITA,harris,29.979463,-95.173616,21,5,District
ATHENS,henderson,32.200569,-95.845354,14,4,District
ATLANTA,cass,33.122117,-94.145746,14,3,District
AUBREY,denton,33.297756,-96.980578,13,2,District
AUSTIN,harris,29.732475,-95.332135,21,5,District
AUSTWELL-TIVOLI,refugio,28.456988,-96.891217,31,1,District
AVERY,red river,33.552444,-94.786687,22,1,District
AXTELL,mclennan,31.653274,-96.97415,18,1,District
AZLE,tarrant,32.914211,-97.540027,7,4,District
BAIRD,callahan,32.398557,-99.399674,10,1,District
BALL,tom green,31.373268,-100.308504,24,5,District
BALLINGER,runnels,31.750912,-99.974986,3,2,District
BANDERA,bandera,29.733238,-99.061605,27,3,District
BANGS,brown,31.718323,-99.131206,3,2,District
BANQUETE,nueces,27.808016,-97.791141,31,2,District
BARBERS HILL,chambers,29.837997,-94.851338,23,3,District
BASTROP,bastrop,30.117975,-97.311819,16,5,District
BAY CITY,matagorda,28.980694,-95.985204,24,4,District
BEL AIR,el paso,31.747426,-106.346283,1,5,District
BELL,grayson,33.63319,-96.405661,6,5,District
BELLAIRE,harris,29.692163,-95.469159,21,5,District
BELLS,cherokee,31.487771,-94.937589,15,2,District
BELLVILLE,austin,29.924677,-96.251938,20,3,District
BELTON,bell,31.087049,-97.47023,13,5,District
BERKNER,dallas,32.936792,-96.693317,10,5,District
BIG BEND,brewster,29.3132,-103.539882,7,1,District
BIG SANDY,upshur,32.588398,-95.111126,27,1,District
BIG SPRING,howard,32.246917,-101.465992,4,4,District
BIRDVILLE,tarrant,32.861039,-97.19123,7,4,District
BISHOP,jim wells,27.64637,-98.08832,32,2,District
BLANCO,blanco,30.099655,-98.431324,27,2,District
BLAND,hunt,33.2102,-96.289938,20,1,District
BLOOMBURG,cass,33.135162,-94.062262,21,1,District
BLOOMING GROVE,navarro,32.087795,-96.713607,14,2,District
BLOOMINGTON,victoria,28.671593,-96.85471,29,2,District
BLUE RIDGE,collin,33.308533,-96.404392,15,2,District
BLUM,hill,32.139234,-97.396758,17,1,District
BOB HOPE SCHOOL,jefferson,29.91502,-93.931811,24,2,District
BOERNE,kendall,29.799156,-98.710688,27,4,District
BOLING,wharton,29.264339,-95.939722,26,2,District
BONHAM,fannin,33.591442,-96.190212,9,3,District
BORGER,hutchinson,35.665825,-101.397093,1,3,District
BOSQUEVILLE,mclennan,31.61795,-97.195947,18,1,District
BOSWELL,tarrant,32.878134,-97.413054,4,5,District
BOVINA,parmer,34.513905,-102.889573,4,1,District
BOWIE,el paso,31.765666,-106.457927,16,5,District
BOYD,wise,33.074405,-97.570443,9,2,District
BOYS RANCH,oldham,35.531653,-102.252618,7,1,District
BRACKENRIDGE,stephens,32.758783,-98.908165,29,4,District
BRACKETT,kinney,29.315452,-100.412981,30,1,District
BRADY,mcculloch,31.10753,-99.338921,27,3,District
BRANDEIS,bexar,29.56372,-98.646331,28,5,District
BRAZOS,austin,29.619225,-96.03529,26,2,District
BRAZOSPORT,brazoria,28.958933,-95.372673,24,4,District
BRAZOSWOOD,brazoria,29.026048,-95.414941,24,5,District
BRECKENRIDGE,stephens,32.758783,-98.908165,5,3,District
BREMOND,robertson,31.164906,-96.683568,25,1,District
BRENHAM,washington,30.182042,-96.396675,18,4,District
BRENNAN,bexar,29.458247,-98.728399,28,4,District
BREWER,tarrant,32.779784,-97.478052,6,4,District
BRIDGE CITY,orange,30.038347,-93.821471,24,3,District
BRIDGEPORT,wise,33.211078,-97.736209,7,3,District
BROADDUS,san augustine,31.31748,-94.260221,27,1,District
BROCK,parker,32.676258,-97.942512,9,2,District
BRONTE,coke,31.885478,-100.297304,15,1,District
BROOKELAND,sabine,31.149149,-93.993338,23,1,District
BROWNFIELD,terry,33.186554,-102.262234,2,3,District
BROWNSBORO,henderson,32.300012,-95.62233,15,3,District
BROWNWOOD,brown,31.691441,-98.978723,16,4,District
BRUCEVILLE-EDDY,mclennan,31.306931,-97.247839,12,2,District
BRUNI,webb,27.42788,-98.837186,31,1,District
BRYAN,denton,33.211542,-97.075864,13,5,District
BUFFALO,leon,31.471314,-96.071514,22,2,District
BULLARD,cherokee,32.13205,-95.31678,15,3,District
BUNA,jasper,30.430632,-93.95726,22,3,District
BURBANK,bexar,29.392884,-98.509277,29,4,District
BURGES,el paso,31.784971,-106.384138,1,4,District
BURKBURNETT,wichita,34.081094,-98.572901,5,4,District
BURLESON,johnson,32.52903,-97.345731,4,5,District
BURNET,burnet,30.774409,-98.230462,27,4,District
BURTON,washington,30.183957,-96.598722,28,1,District
BUSHLAND,potter,35.202279,-102.062278,2,2,District
CADDO MILLS,hunt,33.079599,-96.228791,17,2,District
CALALLEN,nueces,27.857635,-97.636446,31,4,District
CALDWELL,burleson,30.548227,-96.67398,19,3,District
CALHOUN,calhoun,28.62077,-96.642061,24,4,District
CALLISBURG,cooke,33.70172,-97.01173,13,2,District
CAMPBELL,hunt,33.154391,-95.95045,20,1,District
CANADIAN,hemphill,35.908907,-100.385219,7,2,District
CANEY CREEK,montgomery,30.25515,-95.313103,18,4,District
CANTON,comal,29.685145,-98.132495,15,3,District
CANUTILLO,el paso,31.897117,-106.58471,1,4,District
CANYON,comal,29.685145,-98.132495,27,4,District
CANYON LAKE,lubbock,33.61237,-101.868131,26,3,District
CAPROCK,randall,35.179691,-101.802706,3,4,District
CARNEGIE VANGUARD,harris,29.75418,-95.385391,21,5,District
CARRIZO SPRINGS,dimmit,28.518902,-99.839834,29,3,District
CARROLL,nueces,27.719114,-97.403744,28,5,District
CARTER-RIVERSIDE,tarrant,32.782101,-97.299511999999993,7,4,District
CARTHAGE,panola,32.160555,-94.347757,16,3,District
CASTLEBERRY,tarrant,32.762309,-97.39288,7,3,District
CAYUGA,anderson,31.92118,-95.923191,18,1,District
CEDAR CREEK,bastrop,30.13835,-97.471641,17,4,District
CEDAR HILL,dallas,32.581895,-96.949546,7,5,District
CEDAR PARK,williamson,30.471867,-97.843371,15,5,District
CEDAR RIDGE,williamson,30.49276,-97.640331,25,4,District
CELESTE,hunt,33.2895,-96.202801,20,1,District
CELINA,collin,33.277359,-96.783939,13,2,District
CENTENNIAL,collin,33.136267,-96.770097,9,4,District
CENTER,shelby,31.803862,-94.20064,16,3,District
CENTER POINT,kerr,29.941734,-99.034073,30,1,District
CENTERVILLE,trinity,31.18135,-95.044027,22,2,District
CENTRAL,tom green,31.46379,-100.450691,3,5,District
CENTRAL HEIGHTS,nacogdoches,31.706309,-94.67829,20,2,District
CHALLENGE EARLY COLLEGE,harris,29.72135,-95.457365,24,4,District
CHANNELVIEW,harris,29.79526,-95.122106,23,4,District
CHAPEL HILL,titus,33.111064,-94.885474,15,3,District
CHAPIN,el paso,31.845141,-106.444354,1,4,District
CHARLOTTE,atascosa,28.862173,-98.70328,30,1,District
CHAVEZ,harris,29.687541,-95.255812,21,5,District
CHESTER,tyler,30.92863,-94.595465,26,1,District
CHICO,hamilton,31.993912,-98.023832,9,2,District
CHILDRESS,childress,34.433204,-100.210216,8,2,District
CHILLICOTHE,hardeman,34.253137,-99.511977,11,1,District
CHINA SPRING,mclennan,31.629802,-97.287694,17,3,District
CHIRENO,nacogdoches,31.496188,-94.350001,23,1,District
CHISHOLM TRAIL,hunt,33.243807,-95.908204,6,4,District
CHISOLM TRAIL,hunt,33.243807,-95.908204,6,4,District
CHISUM,lamar,33.626189,-95.564523,16,2,District
CHRISTOVAL,tom green,31.185433,-100.493504,10,1,District
CHURCHILL,bexar,29.549842,-98.512516,26,5,District
CINCO RANCH,fort bend,29.746905,-95.778611,19,5,District
CISCO,eastland,32.377624,-98.99341,10,2,District
CLARENDON,donley,34.939657,-100.898735,2,1,District
CLARK,collin,33.058695,-96.703289,27,5,District
CLAUDE,armstrong,35.106225,-101.366322,7,1,District
CLEAR BROOK,harris,29.548052,-95.186898,24,5,District
CLEAR CREEK,galveston,29.525354,-95.072334,24,5,District
CLEAR FALLS,galveston,29.511103,-95.028684,24,4,District
CLEAR LAKE,harris,29.582454,-95.105821,24,5,District
CLEAR SPRINGS,galveston,29.500253,-95.143019,23,4,District
CLEBURNE,johnson,32.345696,-97.423288,6,4,District
CLEMENS,fort bend,29.575142,-95.633167,25,5,District
CLEMENTS,fort bend,29.575142,-95.633167,20,5,District
CLEVELAND,liberty,30.339115,-95.069491,23,3,District
CLIFTON,bosque,31.788739,-97.590441,12,2,District
CLINT,el paso,31.570637,-106.218532,2,4,District
CLYDE,callahan,32.415502,-99.527265,4,3,District
COAHOMA,howard,32.30284,-101.30563,4,2,District
COLEMAN,coleman,31.809203,-99.424587,3,2,District
COLLEGE PARK,montgomery,30.204219,-95.47175,15,5,District
COLLEGE STATION,brazos,30.59275,-96.321641,18,3,District
COLLEGIATE,nueces,27.76407,-97.407211,12,5,District
COLLEYVILLE-HERITAGE,tarrant,32.886628,-97.104022,5,5,District
COLLINSVILLE,grayson,33.562163,-96.904695,14,1,District
COLORADO,mitchell,32.404352,-100.848882,4,2,District
COLUMBIA,brazoria,29.137502,-95.650609,25,3,District
COLUMBUS,colorado,29.702155,-96.562041,20,3,District
COMANCHE,comanche,31.912634,-98.595579,8,3,District
COMFORT,kendall,29.994897,-98.902361,27,2,District
COMMERCE,hunt,33.241807,-95.925454,11,3,District
COMMUNITY,collin,33.0238,-96.3732,9,3,District
CONROE,montgomery,30.321424,-95.48414,14,5,District
COOLIDGE,limestone,31.748056,-96.655377,26,1,District
COOPER,delta,33.362255,-95.698676,3,5,District
COPPELL,dallas,32.974672,-96.998599,6,5,District
COPPERAS COVE,coryell,31.126675,-97.913112,13,5,District
CORONADO,lubbock,33.564022,-101.917481,1,5,District
CORRIGAN-CAMDEN,polk,30.991718,-94.826293,23,2,District
COTULLA,la salle,28.43863,-99.235161,29,3,District
CRANDALL,randall,35.11391,-101.899488,12,3,District
CRAWFORD,mclennan,31.532058,-97.450909,12,2,District
CREEKVIEW,denton,33.002931,-96.912432,10,5,District
CROCKETT,houston,31.30046,-95.446861,16,5,District
CROSBY,harris,29.899492,-95.066751,19,4,District
CROSS PLAINS,callahan,32.131342,-99.16478,12,1,District
CROSS ROADS,coryell,31.121249,-97.89983,19,1,District
CROWLEY,tarrant,32.57833,-97.375702,15,4,District
CRYSTAL CITY,zavala,28.69037,-99.821498,29,3,District
CUERO,dewitt,29.09014,-97.28004,26,3,District
CUMBY,hopkins,33.135552,-95.844699,20,1,District
CYPRESS CREEK,harris,29.965823,-95.565165,17,5,District
CYPRESS FALLS,harris,29.918588,-95.631662,17,5,District
CYPRESS LAKES,harris,29.85419,-95.703051,15,5,District
CYPRESS PARK,harris,29.92274,-95.583961,20,5,District
CYPRESS RANCH,harris,29.941119,-95.719693,15,5,District
CYPRESS RIDGE,harris,29.893312,-95.604799,17,5,District
CYPRESS SPRINGS,harris,29.89285,-95.719945,17,5,District
CYPRESS WOODS,harris,29.971016,-95.681547,17,5,District
DAINGERFIELD,morris,33.014536,-94.718007,14,3,District
DALHART,hartley,36.04971,-102.504712,1,3,District
DANBURY,brazoria,29.223696,-95.341777,26,2,District
DAVIS,harris,29.783725,-95.358,21,4,District
DAWSON,navarro,31.897555,-96.710343,5,1,District
DAYTON,liberty,30.064554,-94.90533,19,4,District
DE KALB,bowie,33.507864,-94.622786,16,2,District
DE LEON,comanche,32.11548,-98.536381,10,2,District
DECATUR,wise,33.217782,-97.579184,7,3,District
DEER PARK,harris,29.689186,-95.130251,23,5,District
DEL RIO,val verde,29.383494,-100.919893,27,5,District
DEL VALLE,el paso,31.692468,-106.296371,26,4,District
DENISON,grayson,33.792047,-96.547438,5,4,District
DENTON,denton,33.224883,-97.145326,5,4,District
DENVER CITY,yoakum,32.970936,-102.837045,5,2,District
DETROIT,red river,33.669816,-95.269303,22,1,District
DEVINE,medina,29.148465,-98.91938,29,3,District
DEWEYVILLE,newton,30.268356,-93.788022,24,2,District
DIAMOND HILL-JARVIS,tarrant,32.809204,-97.336918,7,4,District
DIBOLL,angelina,31.192639,-94.768227,21,3,District
DICKINSON,galveston,29.468042,-95.03097,23,4,District
DILLEY,frio,28.675717,-99.172527,28,2,District
DIMMITT,castro,34.54398,-102.33258,6,2,District
DOBIE,harris,29.594985,-95.245842,23,5,District
DONNA,hidalgo,26.171971,-98.036422,31,5,District
DONNA NORTH,hidalgo,26.22717,-98.078801,32,4,District
DRIPPING SPRINGS,hays,30.19823,-98.100971,27,4,District
DUBLIN,erath,32.088,-98.321911,10,2,District
DULLES,fort bend,29.619752,-95.584542,20,5,District
DUMAS,moore,35.863213,-101.977726,3,4,District
DUNBAR,tarrant,32.719218,-97.231946,8,4,District
DUNCANVILLE,dallas,32.661318,-96.92954,7,5,District
EARLY,brown,31.746482,-98.931272,3,2,District
EARLY COLLEGE,webb,27.573429,-99.435233,29,5,District
EAST BERNARD,wharton,29.526093,-96.066608,26,2,District
EAST CENTRAL,bexar,29.352501,-98.295378,25,5,District
EAST CHAMBERS,chambers,29.80538,-94.380744000000007,24,2,District
EAST VIEW,williamson,30.64247,-97.618111,17,4,District
EASTERN HILLS,tarrant,32.747918,-97.232434,7,4,District
EASTLAKE,el paso,31.69585,-106.23808,2,4,District
EASTLAND,eastland,32.398545,-98.828165,10,2,District
EASTWOOD,el paso,31.771665,-106.355003,1,5,District
ECONOMEDES,hidalgo,26.309481,-98.102448,31,5,District
ECTOR,fannin,33.575836,-96.272315,19,1,District
EDCOUCH-ELSA,hidalgo,26.299566,-97.9832,32,4,District
EDGEWOOD,van zandt,32.692435,-95.874657,17,2,District
EDINBURG,hidalgo,26.263237,-98.140574,31,5,District
EDINBURG NORTH,hidalgo,26.331969,-98.158439,31,5,District
EDISON,bexar,29.472289,-98.505191,29,4,District
EDNA,jackson,28.964263,-96.652178,30,2,District
EISENHOWER,harris,29.881955,-95.47182,18,5,District
EL CAMPO,wharton,29.202698,-96.28208,24,4,District
EL DORADO,schleicher,30.863719,-100.599582,2,4,District
EL PASO,el paso,31.772886,-106.491063,1,4,District
ELDORADO,schleicher,30.863719,-100.599582,2,2,District
ELGIN,travis,30.366583,-97.404162,26,4,District
ELKHART,anderson,31.628009,-95.581854,21,2,District
ELSIK,harris,29.709904,-95.603352,19,5,District
ELYSIAN FIELDS,harrison,32.38007,-94.144732,19,2,District
ENERGY INSTITUTE,harris,29.738774,-95.348939,18,6,District
ENNIS,ellis,32.304466,-96.626794,14,4,District
ESTACADO,lubbock,33.607682,-101.8217,4,4,District
EULA,callahan,32.341429,-99.561993,10,1,District
EUSTACE,henderson,32.30296,-96.008183,12,3,District
EVADALE,jasper,30.347054,-94.076877,27,1,District
EVANT,coryell,31.473833,-98.152739,12,1,District
EVERMAN,tarrant,32.619116,-97.288494,15,4,District
FABENS,el paso,31.502079,-106.14775,2,4,District
FAIRFIELD,freestone,31.717472,-96.141402,18,3,District
FALFURRIAS,brooks,27.232359,-98.152502,31,3,District
FALLS CITY,karnes,28.980331,-98.025658,30,1,District
FANNINDEL,fannin,33.424794,-95.952791,18,1,District
FARMERSVILLE,collin,33.168884,-96.369379,9,3,District
FARWELL,parmer,34.380413,-103.03422,4,1,District
FERRIS,ellis,32.530477,-96.650167,10,3,District
FLORENCE,williamson,30.830934,-97.794784,25,2,District
FLORESVILLE,wilson,29.145744,-98.152722,30,4,District
FLOUR BLUFF,nueces,27.644397,-97.295932,31,4,District
FLOWER MOUND,denton,33.033076,-97.081547,8,5,District
FLOYDADA,floyd,33.979161,-101.346551,6,2,District
FORNEY,kaufman,32.736524,-96.468384,11,4,District
FORSAN,howard,32.11195,-101.3687,10,1,District
FORT HANCOCK,hudspeth,31.289577,-105.848962,8,1,District
FORT STOCKTON,pecos,30.901887,-102.891088,3,3,District
FOSSIL RIDGE,tarrant,32.892852,-97.295658,5,5,District
FOSTER,fort bend,29.627162,-95.810081,24,4,District
FOX TECHNICAL,bexar,29.432469,-98.495536,29,4,District
FRANKLIN,robertson,31.022579,-96.50138,1,5,District
FRANKSTON,anderson,32.06225,-95.504164,21,2,District
FREDERICKSBURG,gillespie,30.260366,-98.881777,28,4,District
FREER,duval,27.875831,-98.618783,31,2,District
FRENSHIP,lubbock,33.51793,-102.012421,4,4,District
FRIENDSWOOD,galveston,29.510802,-95.209882,23,4,District
FRIONA,parmer,34.637799,-102.730824,6,2,District
FRISCO,collin,33.131709,-96.822057,9,4,District
FROST,navarro,32.079828,-96.812699,18,1,District
FRUITVALE,van zandt,32.684515,-95.801628,20,1,District
FURR,harris,29.779371,-95.249009,21,4,District
GAINESVILLE,cooke,33.603991,-97.159367,6,3,District
GALENA PARK,harris,29.739021,-95.237427,19,4,District
GANADO,jackson,29.037716,-96.515826,30,2,District
GARDEN CITY,glasscock,31.866378,-101.48482,9,1,District
GARLAND,dallas,32.91015,-96.646812,11,5,District
GARRISON,nacogdoches,31.82812,-94.489391,20,2,District
GATESVILLE,coryell,31.432437,-97.724643,17,3,District
GATEWAY,henderson,32.175978,-96.034366,25,3,District
GEORGE RANCH,fort bend,29.518717,-95.695359,23,4,District
GEORGE WEST,live oak,28.329083,-98.1216,31,2,District
GEORGETOWN,williamson,30.661819,-97.666511,15,5,District
GIDDINGS,lee,30.202315,-96.930911,19,3,District
GILMER,upshur,32.731362,-94.956206,13,3,District
GLADEWATER,upshur,32.546809,-94.963636,13,3,District
GLEN ROSE,somervell,32.231576,-97.765328,8,3,District
GODLEY,johnson,32.454794,-97.544607,11,2,District
GOLDTHWAITE,mills,31.453855,-98.577815,12,1,District
GOLIAD,goliad,28.677255,-97.394153,30,3,District
GONZALES,gonzales,29.521521,-97.438463,26,3,District
GOODRICH,polk,30.606346,-94.945071,23,1,District
GOOSE CREEK MEMORIAL,harris,29.823853,-94.968571,19,4,District
GORMAN,eastland,32.208394,-98.675841,12,1,District
GRADY,mcculloch,31.10753,-99.338921,9,1,District
GRAFORD,palo pinto,32.939565,-98.252417,12,1,District
GRAHAM,young,33.096475,-98.581492,5,3,District
GRANBURY,hood,32.439578,-97.810423,4,5,District
GRAND PRAIRIE,dallas,32.75367,-97.002732,6,5,District
GRAND SALINE,van zandt,32.685533,-95.713811,17,2,District
GRANDVIEW,johnson,32.263475,-97.176234,11,2,District
GRANGER,eastland,32.471152,-98.651652,28,1,District
GRAPE CREEK,tom green,31.568286,-100.546519,2,2,District
GRAPELAND,houston,31.492838,-95.483441,21,2,District
GRAPEVINE,tarrant,32.91568,-97.119021,5,5,District
GREENVILLE,hunt,33.104575,-96.119782,12,4,District
GREENWOOD,midland,32.02378,-101.895358,3,3,District
GREGORY-PORTLAND,san patricio,27.903467,-97.323406,31,4,District
GROESBECK,limestone,31.538977,-96.524343,18,3,District
GRUVER,hansford,36.261648,-101.400335,2,1,District
GUNTER,grayson,33.457626,-96.73758,15,2,District
GUYER,denton,33.135663,-97.103456,5,4,District
HALE CENTER,hale,34.069823,-101.85034,6,1,District
HALLETTSVILLE,lavaca,29.447363,-96.935069,26,3,District
HALLSVILLE,harrison,32.5147,-94.590751,17,4,District
HALTOM,tarrant,32.848206,-97.279777,5,5,District
HAMILTON,hamilton,31.698771,-98.128132,10,2,District
HAMLIN,jones,32.8788,-100.132977,6,1,District
HAMSHIRE-FANNETT,jefferson,29.862641,-94.3144,24,3,District
HANNA,collin,33.360926,-96.550882,32,5,District
HAPPY,swisher,34.746226,-101.860928,3,1,District
HARDIN,liberty,30.156776,-94.73436,24,2,District
HARDIN-JEFFERSON,hardin,30.103736,-94.40581,24,3,District
HARGRAVE,harris,30.042333,-95.059807,23,3,District
HARKER HEIGHTS,bell,31.056837,-97.651118,13,5,District
HARLANDALE,bexar,29.365359,-98.502131,30,4,District
HARLETON,harrison,32.67733,-94.57145,22,1,District
HARLINGEN,cameron,26.20793,-97.683689,32,5,District
HARMONY,upshur,32.754279,-95.108978,19,2,District
HARMONY SCIENCE ACADEMY,harris,29.679907,-95.558958,26,2,District
HARPER,gillespie,30.301925,-99.244797,30,1,District
HART,mclennan,31.541492,-96.828088,4,1,District
HASKELL,haskell,33.163528,-99.733197,6,1,District
HASTINGS,harris,29.709859,-95.597954,19,5,District
HAWKINS,wood,32.582157,-95.20729,19,2,District
HAWLEY,jones,32.613618,-99.819994,4,2,District
HEALTH CAREERS,bexar,29.520596,-98.578849,27,5,District
HEARNE,robertson,30.870844,-96.601275,22,2,District
HEBRON,denton,33.035521,-96.858636,9,4,District
HEMPHILL,sabine,31.346412,-93.847049,20,2,District
HEMPSTEAD,waller,30.083392,-96.07723,20,3,District
HENDERSON,rusk,32.170084,-94.822051,12,4,District
HENDRICKSON,travis,30.464251,-97.588671,26,4,District
HENRIETTA,clay,33.819859,-98.178638,8,2,District
HEREFORD,deaf smith,34.825544,-102.395734,3,4,District
HERITAGE,collin,33.17709,-96.754511,9,4,District
HICO,hamilton,31.993912,-98.023832,10,2,District
HIGH ISLAND,galveston,29.563727,-94.390309,27,1,District
HIGHLAND,bexar,29.389605,-98.442819,9,1,District
HIGHLAND PARK,potter,35.250132,-101.654804,11,4,District
HIGHLANDS,bexar,29.389605,-98.442819,25,5,District
HIGHTOWER,fort bend,29.531608,-95.497847,20,5,District
HILLCREST,dallas,32.883211,-96.785593,10,4,District
HILLSBORO,hill,31.982956,-97.127612,8,3,District
HIRSCHI,wichita,33.933954,-98.528622,5,3,District
HITCHCOCK,galveston,29.348261,-95.029923,26,2,District
HOLLAND,bell,30.879839,-97.409594,28,1,District
HOLLIDAY,archer,33.810669,-98.689016,8,2,District
HOLMES,bexar,29.465447,-98.617377,27,5,District
HONDO,medina,29.341546,-99.135524,29,3,District
HONEY GROVE,fannin,33.591358,-95.900085,16,2,District
HOOKS,bowie,33.467853,-94.284053,16,2,District
HORIZON,el paso,31.684482,-106.170095,2,4,District
HORN,dallas,32.731652,-96.557413,12,5,District
HOUSTON,bexar,29.424656,-98.399299,21,5,District
HOWE,hidalgo,26.227331,-98.261031,15,2,District
HUBBARD,hill,31.835553,-96.812684,18,1,District
HUDSON,bexar,29.509676,-98.306675,20,3,District
HUGHES SPRINGS,cass,33.006722,-94.636089,18,2,District
HULL-DAISETTA,liberty,30.117173,-94.644457,27,1,District
HUMBLE,harris,29.982781,-95.246671,22,5,District
HUNTINGTON,angelina,31.284709,-94.570792,21,3,District
HUNTSVILLE,walker,30.741103,-95.536608,14,5,District
HUTTO,williamson,30.53636,-97.562251,19,3,District
IDALOU,lubbock,33.65992,-101.683182,5,2,District
IDEA ACADEMY,hidalgo,26.166611,-98.064791,32,2,District
IDEA COLLEGE PREP,hidalgo,26.166611,-98.064791,32,2,District
INDEPENDENCE,collin,33.165479,-96.750465,9,5,District
INDUSTRIAL,jackson,28.819352,-96.615769,30,2,District
INGLESIDE,san patricio,27.876711,-97.218955,30,3,District
INGRAM TOM MOORE,kerr,30.074421,-99.252053,25,3,District
IOLA,grimes,30.767915,-96.072966,26,1,District
IOWA PARK,wichita,33.96259,-98.693211,5,3,District
IRAAN,pecos,30.909272,-101.901069,8,1,District
IRVIN,dallas,32.824989,-96.949999,1,4,District
IRVING,dallas,32.824989,-96.949999,6,5,District
ITALY,ellis,32.181129,-96.878968,14,2,District
ITASCA,hill,32.164515,-97.145293,11,2,District
JACKSBORO,jack,33.227562,-98.170604,9,2,District
JACKSONVILLE,cherokee,31.953581,-95.250778,17,4,District
JARRELL,williamson,30.81484,-97.627411,25,2,District
JASPER,collin,33.067659,-96.783258,22,3,District
JAY,nueces,27.753053,-97.394459,27,5,District
JAYTON,liberty,30.064554,-94.90533,11,1,District
JEFFERSON,bexar,29.465178,-98.538604,10,4,District
JIM NED,taylor,32.213199,-99.797673,3,2,District
JOAQUIN,shelby,31.965934,-94.049919,24,1,District
JOHNSON,bexar,29.65601,-98.435461,29,5,District
JOHNSTON,bexar,29.65601,-98.435461,25,4,District
JOSHUA,johnson,32.450188,-97.381962,6,4,District
JOURDANTON,atascosa,28.90855,-98.53974,28,2,District
JUAREZ-LINCOLN,hidalgo,26.328461,-98.39881,32,4,District
JUAREZ LINCOLN,hidalgo,26.328461,-98.39881,32,4,District
JUDSON,bexar,29.509676,-98.306675,26,5,District
JUDSON EARLY COLLEGE ACADEMY,bexar,29.551414,-98.327967,25,5,District
JUNCTION,kimble,30.487931,-99.778789,2,2,District
KARNACK,harrison,32.667811,-94.17257,21,1,District
KARNES CITY,karnes,28.88788,-97.892055,29,2,District
KASHMERE,harris,29.822509,-95.31509,21,4,District
KATY,fort bend,29.78303,-95.833011,19,5,District
KAUFER,kleberg,27.297364,-97.810176,32,2,District
KAUFMAN,kaufman,32.56571,-96.312653,12,3,District
KEENE,johnson,32.391655,-97.318027,11,2,District
KELLER,tarrant,32.939775,-97.23284,5,5,District
KELTON,bell,31.087049,-97.47023,8,1,District
KEMP,kaufman,32.428717,-96.228318,12,3,District
KEMPNER,fort bend,29.642796,-95.644696,20,5,District
KENEDY,karnes,28.82996,-97.84628,29,2,District
KENNARD,houston,31.361512,-95.180123,23,1,District
KENNEDALE,tarrant,32.652528,-97.19877,10,3,District
KENNEDY,karnes,28.82996,-97.84628,29,4,District
KERMIT,winkler,31.856044,-103.082649,1,2,District
KERR,harris,29.691573000000002,-95.635351,23,4,District
KILGORE,gregg,32.393353,-94.873228,14,4,District
KILLEEN,bell,31.112203,-97.697753,16,4,District
KING,nueces,27.718759,-97.370808,28,5,District
KINGWOOD,harris,30.045404,-95.1956,22,5,District
KINGWOOD PARK,harris,30.072554,-95.212994,19,4,District
KIRBYVILLE,jasper,30.65076,-93.89478,22,3,District
KLEIN,harris,30.019784,-95.523551,14,5,District
KLEIN COLLINS,harris,30.061406,-95.478787,14,5,District
KLEIN FOREST,harris,29.965824,-95.499545,14,5,District
KLEIN OAK,harris,30.096835,-95.518429,18,4,District
KNOX CITY,knox,33.421011,-99.814856,11,1,District
KOUNTZE,hardin,30.375106,-94.33362,24,2,District
KRESS,swisher,34.364827,-101.744375,1,1,District
KRUM,denton,33.264058,-97.226873,13,2,District
LA FERIA,cameron,26.16457,-97.82841,32,3,District
LA GRANGE,fayette,29.901872,-96.865098,19,3,District
LA JOYA,hidalgo,26.252828,-98.471061,30,5,District
LA MARQUE,galveston,29.374715,-94.995657,23,4,District
LA PORTE,harris,29.654727,-95.014766,23,5,District
LA POYNOR,henderson,32.09755,-95.639474,24,1,District
LA PRYOR,zavala,28.944951,-99.843145,30,1,District
LA VEGA,mclennan,31.60231,-97.09929,17,3,District
LA VERNIA,wilson,29.351514,-98.123041,28,3,District
LAGO VISTA,travis,30.44083,-97.97971,25,2,District
LAKE DALLAS,denton,33.132925,-97.061984,9,4,District
LAKE HIGHLANDS,dallas,32.887003,-96.72728,9,5,District
LAKE TRAVIS,travis,30.327406,-97.969977,27,4,District
LAKE VIEW,tom green,31.504509,-100.443978,4,4,District
LAKE WORTH,tarrant,32.820221,-97.416781,7,3,District
LAKEVIEW CENTENNIAL,dallas,32.856832,-96.576284,11,5,District
LAMAR,harris,29.740249,-95.426211,21,5,District
LAMAR CONS,fort bend,29.560382,-95.77922,24,4,District
LAMESA,dawson,32.745624,-101.958995,3,3,District
LAMPASAS,lampasas,31.0417,-98.181691,16,4,District
LANCASTER,dallas,32.617371,-96.762864,14,4,District
LANGHAM CREEK,harris,29.881564,-95.677156,17,5,District
LANIER,bexar,29.422645,-98.514094,25,4,District
LASARA,willacy,26.46347,-97.90767,31,1,District
LATEXO,houston,31.394522,-95.472877,26,1,District
LAW ENFCMT-CRIM JUST,harris,29.764729,-95.408332,20,5,District
LEANDER,williamson,30.537572,-97.851136,15,5,District
LEE,bexar,29.507518,-98.515972,22,5,District
LEGGETT,polk,30.816335,-94.867259,23,1,District
LEON,leon,31.320472,-96.205401,22,2,District
LEONARD,fannin,33.389957,-96.241894,15,2,District
LEVELLAND,hockley,33.58374,-102.349732,2,3,District
LEVERETTS CHAPEL,rusk,32.31252,-94.921296,21,1,District
LEWISVILLE,denton,33.040892,-97.020051,8,5,District
LIBERTY,liberty,30.074786,-94.787879,23,3,District
LIBERTY-EYLAU,bowie,33.391517,-94.0907,14,3,District
LIBERTY HILL,williamson,30.680323,-97.953654,27,3,District
LIFE SCHOOL OAK CLIFF,dallas,32.690454,-96.821584,15,2,District
LINDALE,smith,32.514253,-95.396751,15,3,District
LINDEN-KILDARE,cass,32.978122,-94.31308,18,2,District
LINDSAY,cooke,33.6366,-97.2373,14,1,District
LIPAN,hood,32.521386,-98.047207,16,1,District
LITTLE ELM,denton,33.181484,-96.907019,7,3,District
LITTLEFIELD,lamb,33.916485,-102.34253,2,3,District
LIVINGSTON,polk,30.71721,-94.966961,18,4,District
LLANO,llano,30.732967,-98.681851,27,3,District
LOCKHART,caldwell,29.872594,-97.677369,26,4,District
LOCKNEY,floyd,34.12102,-101.446508,6,2,District
LONDON,nueces,27.68894,-97.479511,31,1,District
LONE OAK,hunt,32.986056,-95.931176,17,2,District
LONE STAR,denton,33.19111,-96.86629,11,3,District
LONGVIEW,gregg,32.544968,-94.743574,12,5,District
LORENZO,crosby,33.672373,-101.531867,5,1,District
LOS FRESNOS,cameron,26.074714,-97.482913,32,5,District
LOUISE,wharton,29.111201,-96.408451,28,1,District
LOVEJOY,collin,33.101881,-96.613431,9,3,District
LUBBOCK,lubbock,33.578611,-101.860861,2,5,District
LUEDERS-AVOCA,jones,32.865917,-99.717068,16,1,District
LUFKIN,angelina,31.335757,-94.687814,14,5,District
LULING,caldwell,29.677839,-97.654262,26,3,District
LUMBERTON,hardin,30.238024,-94.196281,20,4,District
LYFORD,willacy,26.409885,-97.799253,32,3,District
LYTLE,medina,29.236923,-98.807006,28,3,District
MABANK,kaufman,32.372524,-96.110146,14,4,District
MACARTHUR,bexar,29.5293,-98.44085,26,5,District
MADISON,bexar,29.581719,-98.391303,21,5,District
MADISONVILLE,madison,30.945,-95.905634,18,3,District
MAGNOLIA,montgomery,30.227815,-95.687105,17,5,District
MAGNOLIA WEST,montgomery,30.22155,-95.7666,18,4,District
MALAKOFF,henderson,32.175978,-96.034366,21,2,District
MANOR,travis,30.353329,-97.562329,19,3,District
MANSFIELD,tarrant,32.573989,-97.090384,4,5,District
MANVEL,brazoria,29.47208,-95.36514,23,4,District
MARBLE FALLS,burnet,30.583391,-98.252192,27,4,District
MARCUS,denton,33.064443,-97.062779,8,5,District
MARION,guadalupe,29.567002,-98.141147,28,3,District
MARLIN,webb,27.518485,-99.505431,18,3,District
MARSHALL,bexar,29.513856,-98.620165,20,5,District
MART,mclennan,31.541492,-96.828088,22,2,District
MARTIN,webb,27.518485,-99.505431,29,5,District
MASON,mason,30.743288,-99.241911,2,2,District
MATHIS,san patricio,28.08435,-97.813314,30,3,District
MAY,nueces,27.753053,-97.394459,16,1,District
MAYDE CREEK,harris,29.806473,-95.695341,19,5,District
MAYPEARL,ellis,32.314846,-97.018869,11,2,District
MCALLEN,hidalgo,26.226353,-98.238343,30,5,District
MCCALLUM,bexar,29.343467,-98.512276,25,4,District
MCCAMEY,upton,31.126384,-102.219796,8,1,District
MCCOLLUM,bexar,29.343467,-98.512276,30,4,District
MCGREGOR,mclennan,31.427047,-97.405031,12,2,District
MCKINNEY,collin,33.188204,-96.632484,9,4,District
MCKINNEY BOYD,collin,33.202869,-96.678062,10,5,District
MCKINNEY NORTH,collin,33.23079,-96.642368,9,4,District
MCLEOD,cass,32.948789,-94.083276,22,1,District
MCNEIL,travis,30.449115,-97.732611,15,5,District
MEDINA VALLEY,medina,29.344272,-98.839257,28,4,District
MELISSA,collin,33.291097,-96.576374,12,2,District
MEMORIAL,harris,29.780637,-95.523794,28,5,District
MEMPHIS,hall,34.735251,-100.548754,2,1,District
MENARD,menard,30.91341,-99.790401,10,1,District
MERCEDES,hidalgo,26.14072,-97.90881,32,4,District
MERIDIAN,bosque,31.92703,-97.653509,18,1,District
MERKEL,taylor,32.465491,-100.025266,4,3,District
MESQUITE,dallas,32.765474,-96.595991,12,5,District
MEXIA,limestone,31.687892,-96.474866,18,3,District
MIDLAND,midland,31.999754,-102.08437,3,5,District
MIDLOTHIAN,ellis,32.49141,-96.993961,15,4,District
MIDLOTHIAN HERITAGE,ellis,32.487544,-96.943673,7,4,District
MIDWAY,mclennan,31.483524,-97.199404,16,4,District
MILANO,milam,30.713661,-96.86958,28,1,District
MILBY,harris,29.67506,-95.342201,21,5,District
MILDRED,navarro,32.03589,-96.378056,14,2,District
MILES,runnels,31.605446,-100.186383,10,1,District
MILLSAP,parker,32.758017,-98.005313,10,2,District
MINEOLA,wood,32.670662,-95.500273000000007,13,3,District
MINERAL WELLS,palo pinto,32.816884,-98.07774,6,4,District
MISSION,hidalgo,26.223409,-98.329881,32,4,District
MISSION COLLEGIATE,hidalgo,26.21801,-98.310041,32,4,District
MISSION EARLY COLLEGE,el paso,31.679061,-106.26542,1,5,District
MONAHANS,ward,31.586865,-102.893073,3,3,District
MONTEREY,lubbock,33.550188,-101.88557,2,5,District
MONTGOMERY,montgomery,30.387458,-95.721473,18,4,District
MONTWOOD,el paso,31.762661,-106.276636,1,5,District
MOODY,mclennan,31.285147,-97.367952,28,5,District
MORTON RANCH,harris,29.803431,-95.744028,18,5,District
MOULTON,lavaca,29.57887,-97.147471,28,1,District
MOUNT CALM,hill,31.76198,-96.879621,20,1,District
MOUNT PLEASANT,titus,33.177269,-94.990102,12,4,District
MOUNTAIN VIEW,el paso,31.79735,-106.158507,2,4,District
MUENSTER,cooke,33.656091,-97.374628,14,1,District
MULESHOE,bailey,34.226205,-102.728625,2,3,District
MULLIN,mills,31.555939,-98.670882,25,1,District
NAAMAN FOREST,dallas,32.957845,-96.63769,11,5,District
NACOGDOCHES,nacogdoches,31.643311,-94.621646,17,4,District
NATALIA,medina,29.187649,-98.854026,28,2,District
NAVARRO,guadalupe,29.656107,-97.967026,27,2,District
NAVASOTA,grimes,30.400588,-96.06911,20,3,District
NECHES,anderson,31.874884,-95.47581,21,1,District
NEDERLAND,jefferson,29.982055,-94.011981,20,4,District
NEEDVILLE,fort bend,29.37069,-95.80059,25,3,District
NEW BOSTON,bowie,33.456898,-94.420033,14,3,District
NEW BRAUNFELS,comal,29.718688,-98.14995,27,4,District
NEW CANEY,montgomery,30.132424,-95.221678,18,4,District
NEW DEAL,lubbock,33.731329,-101.839759,6,1,District
NEW DIANA,upshur,32.708613,-94.751388,18,2,District
NEW HOME,williamson,30.573799,-97.852119,5,1,District
NEW WAVERLY,walker,30.523605,-95.486234,23,2,District
NEWTON,newton,30.82421,-93.74296,24,2,District
NIMITZ,dallas,32.792515,-96.946613,18,5,District
NIXON,webb,27.52623,-99.475216,29,5,District
NIXON SMILEY,gonzales,29.275452,-97.76461,29,2,District
NOCONA,montague,33.797303,-97.729873,9,2,District
NORMANGEE,leon,31.026895,-96.123415,26,1,District
NORTH CROWLEY,tarrant,32.610056,-97.394814,4,5,District
NORTH DALLAS,dallas,32.810317,-96.79512,10,4,District
NORTH FOREST,harris,29.867806,-95.262549,19,4,District
NORTH FORNEY,kaufman,32.765313,-96.406797,13,3,District
NORTH HOPKINS,hopkins,33.271232,-95.619107,22,1,District
NORTH HOUSTON EARLY COLLEGE,harris,29.83529,-95.377451,20,5,District
NORTH LAMAR,lamar,33.692585,-95.55164,12,4,District
NORTH MESQUITE,dallas,32.80904,-96.629249,12,5,District
NORTH SIDE,tarrant,32.78398,-97.371886,7,4,District
NORTHBROOK,harris,29.817229,-95.531068,18,5,District
NORTHSIDE,tarrant,32.78398,-97.371886,11,1,District
NORTHWEST,denton,33.025181,-97.313424,9,4,District
OAK RIDGE,montgomery,30.170968,-95.443717,14,5,District
OAKWOOD,leon,31.587178,-95.853531,23,1,District
ODEM,san patricio,27.950584,-97.590051,31,2,District
ODESSA,ector,31.851308,-102.382562,3,5,District
OLNEY,young,33.366687,-98.761827,8,2,District
OLTON,lamb,34.18158,-102.13725,6,2,District
ORANGE GROVE,jim wells,27.950272,-97.940214,31,3,District
ORANGEFIELD,orange,30.076514,-93.862569,24,3,District
ORE CITY,upshur,32.807173,-94.720556,18,2,District
OVERTON,rusk,32.27628,-94.977991,24,1,District
OZEN,jefferson,30.051818,-94.118205,20,4,District
OZONA,crockett,30.713734,-101.201105,2,2,District
PALACIOS,matagorda,28.70726,-96.23617,25,3,District
PALESTINE,anderson,31.738192,-95.604569,21,3,District
PALMER,ellis,32.428071,-96.683125,14,2,District
PALO DURO,potter,35.227845,-101.823244,3,4,District
PAMPA,gray,35.550377,-100.964504,3,4,District
PANHANDLE,carson,35.352088,-101.383062,7,2,District
PARADISE,wise,33.14471,-97.694061,9,2,District
PARIS,lamar,33.64068,-95.53285,12,4,District
PARKLAND,el paso,31.902358,-106.402197,2,4,District
PASCHAL,tarrant,32.707873,-97.350733,4,5,District
PEARCE,dallas,32.972643,-96.768258,10,5,District
PEARLAND,brazoria,29.538787,-95.270268,24,5,District
PEARSALL,frio,28.902817,-99.08884,29,3,District
PEASTER,parker,32.869291,-97.865968,9,2,District
PEBBLE HILLS,el paso,31.77993,-106.220101,2,5,District
PECOS,reeves,31.413818,-103.503688,3,3,District
PERMIAN,ector,31.886886,-102.357691,3,5,District
PERRYTON,ochiltree,36.388202,-100.816167,1,3,District
PEWITT,morris,33.185449,-94.711213,18,2,District
PFLUGERVILLE,travis,30.444395,-97.632462,15,5,District
PILOT POINT,denton,33.410711,-96.947887,6,3,District
PINE TREE,gregg,32.515781,-94.780685,17,4,District
PINEYWOODS COMMUNITY ACADEMY,angelina,31.34281,-94.735803,23,1,District
PITTSBURG,camp,33.002535,-94.972121,13,3,District
PLAINS,yoakum,33.189068,-102.82558,4,1,District
PLAINVIEW,hale,34.196976,-101.725467,4,4,District
PLANO,llano,30.732967,-98.681851,8,5,District
PLANO EAST SR,collin,33.03914,-96.64562,9,5,District
PLANO SR,collin,33.029036,-96.752083,9,5,District
PLEASANT GROVE,bowie,33.464873,-94.110108,14,3,District
PLEASANTON,atascosa,28.965947,-98.467539,30,4,District
POLYTECHNIC,tarrant,32.73243,-97.288425,8,4,District
PONDER,denton,33.185284,-97.291466,13,2,District
POOLVILLE,parker,32.972401,-97.860985,12,1,District
PORT ARANSAS,nueces,27.83238,-97.060292,32,1,District
PORT ISABEL,cameron,26.078462,-97.247082,32,3,District
PORT NECHES-GROVES,jefferson,29.98876,-93.953353,20,4,District
PORTER,montgomery,30.11833,-95.269691,32,5,District
POST,garza,33.184848,-101.381032,5,2,District
POTEET,atascosa,29.047297,-98.565937,11,4,District
POTH,wilson,29.075261,-98.081582,28,2,District
POTTSBORO,grayson,33.76467,-96.6525,6,3,District
PRAIRIE VALLEY,montague,33.893654,-97.724,13,1,District
PRAIRILAND,lamar,33.573413,-95.392665,16,2,District
PREMONT,jim wells,27.356498,-98.133511,32,2,District
PRESIDIO,presidio,29.552206,-104.356111,4,2,District
PRINCETON,collin,33.173435,-96.488518,9,3,District
PROGRESO,hidalgo,26.098713,-97.957445,32,3,District
PROSPER,collin,33.2486,-96.7884,13,2,District
QUANAH,hardeman,34.294242,-99.745546,2,1,District
QUEEN CITY,cass,33.149998,-94.137393,18,2,District
QUITMAN,wood,32.797596,-95.427737,17,2,District
RAINS,rains,32.890475,-95.790372,11,3,District
RALLS,crosby,33.681245,-101.380587,6,1,District
RANCHVIEW,dallas,32.918611,-96.945226,7,3,District
RANDALL,randall,35.11391,-101.899488,3,4,District
RANDOLPH,bexar,29.527682,-98.295646,27,2,District
RANGER,denton,33.369494,-97.160243,12,1,District
RANKIN,upton,31.229172,-101.941216,7,1,District
RAY,nueces,27.753053,-97.394459,28,5,District
RAYBURN,fannin,33.768151,-96.10456,23,5,District
RAYMONDVILLE,willacy,26.46872,-97.775221,32,3,District
REAGAN,bexar,29.619263,-98.488156,26,5,District
REAGAN COUNTY,reagan,31.201677,-101.451645,2,2,District
RED OAK,ellis,32.512021,-96.803575,14,4,District
REDWATER,bowie,33.365337,-94.248794,16,2,District
REFUGIO,refugio,28.314549,-97.275031,29,2,District
RICE,colorado,29.571265,-96.45414,18,1,District
RICHARDSON,dallas,32.951842,-96.762249,10,5,District
RICHLAND,tarrant,32.841749,-97.229645,5,5,District
RIDER,wichita,33.862402,-98.56869,5,4,District
RIDGE POINT,fort bend,29.48375,-95.515071,23,5,District
RIO GRANDE CITY,starr,26.407631,-98.762724,30,5,District
RIO HONDO,cameron,26.237315,-97.580949,32,3,District
RIO VISTA,johnson,32.228783,-97.372694,11,2,District
RISING STAR,eastland,32.105166,-98.964688,16,1,District
RIVER ROAD,potter,35.30773,-101.832972,1,3,District
RIVERCREST,red river,33.471798,-95.220646,22,1,District
RIVERSIDE,el paso,31.733811,-106.372636,2,4,District
ROBERT LEE,coke,31.90143,-100.487065,9,1,District
ROBINSON,mclennan,31.46195,-97.121801,17,3,District
ROBSTOWN,nueces,27.801235,-97.676748,31,4,District
ROBY,fisher,32.74304,-100.37894,9,1,District
ROCKDALE,milam,30.651977,-97.017393,19,3,District
ROCKPORT-FULTON,aransas,28.04139,-97.04492,31,4,District
ROCKSPRINGS,edwards,30.016801,-100.204883,30,1,District
ROCKWALL,rockwall,32.904942,-96.458371,12,5,District
ROCKWALL-HEATH,rockwall,32.84624,-96.472381,10,4,District
ROGERS,bell,30.932405,-97.22737,25,2,District
ROMA,starr,26.443172,-99.026311,32,4,District
ROOSEVELT,lubbock,33.582961,-101.674734,26,5,District
ROSCOE COLLEGIATE,nolan,32.438486,-100.541688,9,1,District
ROSEBUD-LOTT,falls,31.139078,-97.00668,22,2,District
ROTAN,fisher,32.852744,-100.464446,6,1,District
ROUND ROCK,williamson,30.510081,-97.700901,15,5,District
ROUND TOP-CARMINE,fayette,30.143919,-96.68137,27,1,District
ROUSE,williamson,30.57014,-97.818231,8,3,District
ROWE,hidalgo,26.227331,-98.261031,30,5,District
ROWLETT,dallas,32.902184,-96.554057,11,5,District
ROYAL,waller,29.80277,-95.969491,26,2,District
ROYSE CITY,hunt,32.974033,-96.292017,9,3,District
RUNGE,karnes,28.888801,-97.711098,31,1,District
RUSK,cherokee,31.781633,-95.143978,21,3,District
RYAN,denton,33.211542,-97.075864,5,5,District
SABINAL,uvalde,29.326395,-99.472076,30,1,District
SABINE,gregg,32.446246,-94.951818,13,3,District
SACHSE,dallas,32.96145,-96.586641,11,5,District
SAGINAW,tarrant,32.8526,-97.3454,7,4,District
SAINT JO,montague,33.690885,-97.522223,14,1,District
SALADO,bell,30.9663,-97.538861,25,2,District
SAM HOUSTON,tarrant,32.702538,-97.075269,7,5,District
SAN AUGUSTINE,san augustine,31.535399,-94.099797,20,2,District
SAN BENITO,cameron,26.141946,-97.651938,32,5,District
SAN DIEGO,duval,27.754715,-98.246526,31,3,District
SAN ELIZARIO,el paso,31.565261,-106.240394,2,4,District
SAN ISIDRO,starr,26.71702,-98.453559,31,1,District
SAN MARCOS,hays,29.82269,-97.947791,25,5,District
SAN PERLITA,willacy,26.496,-97.64016,31,1,District
SAN SABA,san saba,31.195793,-98.72771,3,2,District
SANDERSON,travis,30.375754,-97.753617,7,1,District
SANFORD-FRITCH,hutchinson,35.645372,-101.580425,7,2,District
SANGER,denton,33.369494,-97.160243,6,3,District
SANTA FE,galveston,29.393257,-95.143149,23,4,District
SANTA GERTRUDIS ACADEMY,kleberg,27.522454,-97.881569,32,2,District
SANTA MARIA,cameron,26.076334,-97.844264,32,1,District
SANTA ROSA,cameron,26.253452,-97.823834,32,2,District
SANTO,palo pinto,32.605209,-98.210488,12,1,District
SAVOY,fannin,33.601052,-96.369234,19,1,District
SCARBOROUGH,harris,29.829261,-95.470797,21,4,District
SCURRY-ROSSER,kaufman,32.513825,-96.382556,14,2,District
SEAGOVILLE,dallas,32.677602,-96.58369,13,4,District
SEALY,austin,29.762086,-96.17435,20,3,District
SEGUIN,guadalupe,29.575921,-97.947206,25,5,District
SEMINOLE,gaines,32.722953,-102.670232,3,3,District
SEVEN LAKES,fort bend,29.707876,-95.80752,23,4,District
SEYMOUR,baylor,33.592187,-99.245872,8,2,District
SHADOW CREEK,brazoria,29.555492,-95.400467,23,5,District
SHALLOWATER,lubbock,33.694644,-101.991052,5,2,District
SHAMROCK,wheeler,35.214347,-100.239457,2,1,District
SHARPSTOWN,harris,29.684351,-95.515521,21,4,District
SHARYLAND,hidalgo,26.21239,-98.284048,30,5,District
SHARYLAND PIONEER,hidalgo,26.300144,-98.266298,31,5,District
SHEPHERD,san jacinto,30.495138,-94.99667,22,3,District
SHERMAN,grayson,33.643629,-96.58308,5,4,District
SHINER,lavaca,29.445729,-97.184692,28,1,District
SILSBEE,hardin,30.344707,-94.148121,22,3,District
SINTON,san patricio,28.040674,-97.496647,30,3,District
SKIDMORE-TYNAN,bee,28.25562,-97.687731,31,2,District
SKYLINE,dallas,32.779362,-96.689761,9,5,District
SLATON,lubbock,33.436311,-101.660289,5,2,District
SLOCUM,anderson,31.63181,-95.462461,26,1,District
SMITH,dallas,32.979363,-96.891554,13,4,District
SMITHSON VALLEY,comal,29.802641,-98.36005,26,5,District
SMITHVILLE,bastrop,29.997995,-97.166184,19,3,District
SMYER,hockley,33.590209,-102.164633,4,1,District
SNYDER,scurry,32.702533,-100.929153,4,3,District
SOCORRO,el paso,31.658789,-106.293095,1,5,District
SOMERSET,bexar,29.229111,-98.650833,28,3,District
SOMERVILLE,burleson,30.34197,-96.535068,26,2,District
SONORA,sutton,30.55663,-100.637191,2,2,District
SOUTH GRAND PRAIRIE,dallas,32.695314,-97.005577,6,5,District
SOUTH OAK CLIFF,dallas,32.699658,-96.81522,13,4,District
SOUTH SAN ANTONIO,bexar,29.349565,-98.548363,30,4,District
SOUTHSIDE,bexar,29.234092,-98.474901,30,4,District
SOUTHWEST,bexar,29.307748,-98.672806,25,5,District
SPEARMAN,hansford,36.185861,-101.187603,7,2,District
SPLENDORA,montgomery,30.247654,-95.197659,23,3,District
SPRING,harris,30.052989,-95.429584,22,5,District
SPRING HILL,gregg,32.564389,-94.795315,16,3,District
SPRING WOODS,harris,29.810888,-95.548309,18,5,District
SPRINGTOWN,parker,32.965236,-97.698258,7,4,District
SPURGER,tyler,30.69517,-94.178587,27,1,District
STAFFORD,jones,32.940139,-99.793332,25,3,District
STAMFORD,jones,32.940139,-99.793332,4,2,District
STANTON,martin,32.13065,-101.80521,4,2,District
STEPHENVILLE,erath,32.21687,-98.236581,6,4,District
STERLING,harris,29.636206,-95.322675,22,5,District
STERLING CITY,sterling,31.84051,-100.988696,10,1,District
STEVENS,bexar,29.440564,-98.684557,27,5,District
STOCKDALE,wilson,29.230528,-97.961084,28,2,District
STONY POINT,williamson,30.53095,-97.661641,15,5,District
STRATFORD,sherman,36.341086,-102.076303,18,5,District
SUDAN,lamb,34.063059,-102.529376,4,1,District
SULPHUR SPRINGS,hopkins,33.138137,-95.619352,12,4,District
SUMMER CREEK,harris,29.92498,-95.20704,18,4,District
SUNDOWN,hockley,33.4599,-102.485968,4,1,District
SUNNYVALE,dallas,32.795284,-96.561099,14,2,District
SUNRAY,moore,36.014052,-101.820459,2,1,District
SUNSET,dallas,32.746383,-96.854264,9,5,District
SWEENY,brazoria,29.0497,-95.70536,25,3,District
SWEETWATER,nolan,32.480268,-100.40519,4,3,District
TAFT,san patricio,27.987395,-97.388512,27,5,District
TAHOKA,lynn,33.169443,-101.806945,5,2,District
TARKINGTON,liberty,30.31493,-94.963471,23,3,District
TASCOSA,potter,35.193752,-101.880359,2,5,District
TATUM,rusk,32.321275,-94.516974,16,3,District
TAYLOR,williamson,30.54928,-97.431261,19,5,District
TEAGUE,freestone,31.633584,-96.263439,22,2,District
TEMPLE,bell,31.106923,-97.353588,13,5,District
TERRELL,kaufman,32.762571,-96.28008,11,4,District
TEXAS,bowie,33.454851,-94.065242,12,4,District
TEXAS CITY,galveston,29.393244,-94.915221,23,4,District
TEXAS EMPOWERMENT ACADEMY,travis,30.27319,-97.672261,29,1,District
THE COLONY,denton,33.075876,-96.887042,8,5,District
THE WOODLANDS,montgomery,30.194371,-95.50343,14,5,District
THORNDALE,milam,30.616197,-97.206589,28,1,District
THRALL,williamson,30.589694,-97.295725,28,1,District
TIDEHAVEN,matagorda,28.898217,-96.141749,30,2,District
TIMBER CREEK,tarrant,32.94948,-97.28698,11,3,District
TIMPSON,shelby,31.906425,-94.38956,20,2,District
TIVY,kerr,30.037547,-99.109162,28,4,District
TLC ACADEMY,tom green,31.4379,-100.5056,9,1,District
TOLAR,hood,32.381971,-97.931932,12,1,District
TOM BEAN,grayson,33.527551,-96.497855,15,2,District
TOMBALL,harris,30.111186,-95.62808,17,5,District
TOMBALL MEMORIAL,harris,30.033813,-95.634521,24,3,District
TOMPKINS,fort bend,29.733371000000002,-95.813825,19,5,District
TORNILLO,el paso,31.460883,-106.090759,1,2,District
TRANSMOUNTAIN EARLY COLLEGE,el paso,31.897984,-106.428368,1,5,District
TRAVIS,travis,30.234386,-97.744723,25,4,District
TRENTON,fannin,33.426788,-96.341188,20,1,District
TRIMBLE TECHNICAL,tarrant,32.736797,-97.33637,8,4,District
TRINITY,trinity,30.959238,-95.35244,6,5,District
TROUP,smith,32.153703,-95.112421,19,2,District
TROY,bell,31.210753,-97.306383,12,2,District
TULIA,swisher,34.542038,-101.757699,6,2,District
TULOSO-MIDWAY,nueces,27.829209,-97.57543,31,4,District
TURNER,dallas,32.947734,-96.891431,10,5,District
UNION GROVE,upshur,32.56917,-94.923071,19,2,District
UNION HILL,upshur,32.812723,-94.97967,22,1,District
UNITED,webb,27.62445,-99.46563,29,5,District
UNITED SOUTH,webb,27.477495,-99.450386,29,5,District
UNIVERSAL ACADEMY,dallas,32.842776,-96.95819,14,1,District
UNIVERSITY,mclennan,31.50307,-97.137171,16,4,District
UPLIFT HEIGHTS PREPARATORY,dallas,32.79002,-96.866021,10,4,District
UVALDE,uvalde,29.220683,-99.781995,28,4,District
VALLE VERDE EARLY COLLEGE,el paso,31.751596,-106.369257,1,5,District
VALLEY MILLS,mclennan,31.645663,-97.453589,18,1,District
VALLEY VIEW,cooke,33.481167,-97.161779,32,3,District
VAN,van zandt,32.535657,-95.638351,15,3,District
VAN ALSTYNE,grayson,33.439441,-96.584935,9,3,District
VAN VLECK,matagorda,29.017084,-95.887402,30,2,District
VANDEGRIFT,travis,30.39665,-97.826601,8,3,District
VEGA,oldham,35.25021,-102.41886,2,1,District
VELA,oldham,35.25021,-102.41886,30,5,District
VENUS,johnson,32.425299,-97.103375,8,3,District
VERIBEST,tom green,31.47721,-100.258805,15,1,District
VERNON,wilbarger,34.147649,-99.31295,5,3,District
VETERANS MEMORIAL,hidalgo,26.24196,-98.315393,32,4,District
VICTORIA EAST,victoria,28.84966,-96.969557,30,4,District
VICTORIA WEST,victoria,28.861185,-97.033494,30,4,District
VIDOR,orange,30.123266,-94.005003,20,4,District
VISTA RIDGE,williamson,30.516798,-97.786159,26,4,District
WACO,mclennan,31.542541,-97.184473,13,5,District
WAKELAND,denton,33.168295,-96.845707,9,3,District
WALL,tom green,31.373268,-100.308504,2,2,District
WALLER,harris,30.078599,-95.920344,18,4,District
WALTRIP,harris,29.818407,-95.432245,22,4,District
WARREN,tyler,30.612306,-94.392074,27,5,District
WASKOM,harrison,32.47541,-94.072014,18,2,District
WATER VALLEY,tom green,31.66791,-100.718524,15,1,District
WAXAHACHIE,ellis,32.4138,-96.837191,15,4,District
WEATHERFORD,parker,32.724693,-97.806594,4,5,District
WEIMAR,colorado,29.703953,-96.788001,30,2,District
WELLINGTON,collingsworth,34.848674,-100.214353,2,1,District
WELLS,cherokee,31.487771,-94.937589,23,1,District
WESLACO,hidalgo,26.167878,-98.000573,31,5,District
WESLACO EAST,hidalgo,26.152364,-97.969948,32,4,District
WEST,mclennan,31.811449,-97.086503,8,3,District
WEST HARDIN,hardin,30.258099,-94.561799,24,2,District
WEST MESQUITE,dallas,32.76165,-96.635683,11,4,District
WEST ORANGE-STARK,orange,30.075836,-93.766465,24,3,District
WEST OSO,nueces,27.767491,-97.460837,31,3,District
WEST RUSK,rusk,32.23925,-94.941012,19,2,District
WEST SABINE,sabine,31.249979,-93.983182,20,2,District
WEST TEXAS,hutchinson,35.825721,-101.449461,7,2,District
WESTBURY,harris,29.649233,-95.480747,22,4,District
WESTERN HILLS,tarrant,32.717908,-97.456182,8,4,District
WESTFIELD,harris,30.007244,-95.446904,22,5,District
WESTLAKE,travis,30.276152,-97.81564,16,5,District
WESTSIDE,harris,29.754148,-95.638114,21,5,District
WESTWOOD,anderson,31.739049,-95.605141,15,5,District
WHARTON,wharton,29.328142,-96.091922,25,3,District
WHEATLEY,harris,29.771918,-95.319759,22,4,District
WHITE DEER,carson,35.429244,-101.172967,2,1,District
WHITE OAK,gregg,32.532006,-94.860993,16,3,District
WHITEFACE,cochran,33.600784,-102.618182,4,1,District
WHITEHOUSE,smith,32.232353,-95.213833,17,4,District
WHITESBORO,grayson,33.661711,-96.923002,6,3,District
WHITEWRIGHT,grayson,33.504622,-96.395729,15,2,District
WHITNEY,hill,31.961848,-97.321328,8,3,District
WICHITA FALLS,wichita,33.893695,-98.517041,5,4,District
WILLIS,montgomery,30.392317,-95.477105,18,4,District
WILLOWRIDGE,fort bend,29.586244,-95.482011,20,5,District
WILLS POINT,van zandt,32.70792,-96.029318,12,3,District
WILMER-HUTCHINS,dallas,32.65407,-96.730841,10,3,District
WIMBERLEY,hays,30.00529,-98.115710000000007,27,3,District
WINDTHORST,archer,33.574716,-98.439533,14,1,District
WINK,winkler,31.753881,-103.151986,8,1,District
WINN,winkler,31.753881,-103.151986,29,5,District
WINNSBORO,wood,32.953055,-95.295489,11,3,District
WINONA,smith,32.491885,-95.183777,19,2,District
WINTERS,runnels,31.965761,-99.960472,10,1,District
WODEN,nacogdoches,31.504731,-94.529061,20,2,District
WOLFE CITY,hunt,33.367506,-96.074996,20,1,District
WOODSBORO,refugio,28.233801,-97.321546,32,1,District
WOODVILLE,tyler,30.78559,-94.43413,23,2,District
WORTHAM,freestone,31.78915,-96.465231,18,1,District
WORTHING,harris,29.656915,-95.366505,22,4,District
WYLIE,collin,33.009604,-96.572214,11,4,District
WYLIE EAST,collin,33.016032,-96.495785,11,3,District
YATES,harris,29.723175,-95.353721,22,4,District
YOAKUM,dewitt,29.290327,-97.159198,26,3,District
YORKTOWN,dewitt,28.979478,-97.507562,29,2,District
YSLETA,el paso,31.700124,-106.340765,2,4,District
ZAPATA,zapata,26.92619,-99.247211,31,3,District
ZAVALLA,angelina,31.159068,-94.420714,27,1,District
ABERNATHY,hale,33.83135,-101.847263,1,2,Region
ABILENE,taylor,32.455757,-99.755994,1,6,Region
ACADEMY,bell,30.982934,-97.345646,4,1,Region
ALAMO HEIGHTS,bexar,29.491267,-98.464634,4,4,Region
ALBA-GOLDEN,wood,32.75912,-95.586291,3,2,Region
ALEDO,parker,32.712426,-97.61627,1,4,Region
ALIEF EARLY COLLEGE,harris,29.733995,-95.574174,3,5,Region
ALLEN,collin,33.109586,-96.660852,1,5,Region
ALPINE,brewster,30.371983,-103.665798,1,2,Region
ALVARADO,johnson,32.390142,-97.206673,2,3,Region
ALVIN,brazoria,29.417432,-95.25215,3,5,Region
ALVORD,wise,33.354728,-97.7055,2,2,Region
AMARILLO,randall,35.166975,-101.905065,1,5,Region
AMERICAS,el paso,31.729613,-106.277371,1,5,Region
ANAHUAC,chambers,29.770692,-94.676059,3,2,Region
ANDERSON,travis,30.375754,-97.753617,2,5,Region
ANDREWS,andrews,32.325672,-102.56782,1,4,Region
ANGLETON,brazoria,29.199661,-95.416688,3,4,Region
ANNA,collin,33.360926,-96.550882,2,4,Region
ANSON,jones,32.752976,-99.895915,1,2,Region
APPLE SPRINGS,trinity,31.225009,-94.970723,3,1,Region
ARANSAS PASS,san patricio,27.913187,-97.167905,4,3,Region
ARCHER CITY,archer,33.589093,-98.630853,2,1,Region
ARGYLE,denton,33.107167,-97.185452,2,2,Region
ARLINGTON,tarrant,32.72031,-97.11584,1,5,Region
ARLINGTON HEIGHTS,tarrant,32.730843,-97.385965,1,5,Region
ARP,smith,32.229632,-95.059236,3,2,Region
ASPERMONT,stonewall,33.138517,-100.221872,2,1,Region
ATASCOCITA,harris,29.979463,-95.173616,3,5,Region
ATHENS,henderson,32.200569,-95.845354,2,4,Region
ATLANTA,cass,33.122117,-94.145746,2,3,Region
AUBREY,denton,33.297756,-96.980578,2,2,Region
AUSTIN,harris,29.732475,-95.332135,3,5,Region
AUSTWELL-TIVOLI,refugio,28.456988,-96.891217,4,1,Region
AVERY,red river,33.552444,-94.786687,3,1,Region
AXTELL,mclennan,31.653274,-96.97415,3,1,Region
AZLE,tarrant,32.914211,-97.540027,1,4,Region
BAIRD,callahan,32.398557,-99.399674,2,1,Region
BALL,tom green,31.373268,-100.308504,3,5,Region
BALLINGER,runnels,31.750912,-99.974986,1,2,Region
BANDERA,bandera,29.733238,-99.061605,4,3,Region
BANGS,brown,31.718323,-99.131206,1,3,Region
BANQUETE,nueces,27.808016,-97.791141,4,2,Region
BARBERS HILL,chambers,29.837997,-94.851338,3,3,Region
BAY CITY,matagorda,28.980694,-95.985204,4,4,Region
BELLAIRE,harris,29.692163,-95.469159,3,5,Region
BELLS,cherokee,31.487771,-94.937589,2,2,Region
BELLVILLE,austin,29.924677,-96.251938,3,3,Region
BELTON,bell,31.087049,-97.47023,2,5,Region
BIG BEND,brewster,29.3132,-103.539882,1,1,Region
BIG SANDY,upshur,32.588398,-95.111126,4,1,Region
BIG SPRING,howard,32.246917,-101.465992,1,4,Region
BIRDVILLE,tarrant,32.861039,-97.19123,1,4,Region
BISHOP,jim wells,27.64637,-98.08832,4,2,Region
BLANCO,blanco,30.099655,-98.431324,4,2,Region
BLOOMBURG,cass,33.135162,-94.062262,3,1,Region
BLOOMING GROVE,navarro,32.087795,-96.713607,2,2,Region
BLOOMINGTON,victoria,28.671593,-96.85471,4,2,Region
BLUE RIDGE,collin,33.308533,-96.404392,3,1,Region
BLUM,hill,32.139234,-97.396758,3,1,Region
BOERNE,kendall,29.799156,-98.710688,4,3,Region
BOLING,wharton,29.264339,-95.939722,4,2,Region
BORGER,hutchinson,35.665825,-101.397093,1,3,Region
BOSWELL,tarrant,32.878134,-97.413054,1,4,Region
BOVINA,parmer,34.513905,-102.889573,1,1,Region
BOWIE,el paso,31.765666,-106.457927,2,5,Region
BOYD,wise,33.074405,-97.570443,2,4,Region
BOYS RANCH,oldham,35.531653,-102.252618,1,2,Region
BRACKENRIDGE,stephens,32.758783,-98.908165,4,5,Region
BRACKETT,kinney,29.315452,-100.412981,4,1,Region
BRADY,mcculloch,31.10753,-99.338921,4,3,Region
BRANDEIS,bexar,29.56372,-98.646331,4,5,Region
BRAZOS,austin,29.619225,-96.03529,4,2,Region
BRAZOSPORT,brazoria,28.958933,-95.372673,4,4,Region
BRECKENRIDGE,stephens,32.758783,-98.908165,1,3,Region
BREMOND,robertson,31.164906,-96.683568,3,1,Region
BRENHAM,washington,30.182042,-96.396675,3,5,Region
BRENNAN,bexar,29.458247,-98.728399,4,4,Region
BREWER,tarrant,32.779784,-97.478052,1,4,Region
BRIDGE CITY,orange,30.038347,-93.821471,3,3,Region
BRIDGEPORT,wise,33.211078,-97.736209,1,3,Region
BROADDUS,san augustine,31.31748,-94.260221,4,1,Region
BROCK,parker,32.676258,-97.942512,2,2,Region
BRONTE,coke,31.885478,-100.297304,2,1,Region
BROOKELAND,sabine,31.149149,-93.993338,3,1,Region
BROWNFIELD,terry,33.186554,-102.262234,1,3,Region
BROWNSBORO,henderson,32.300012,-95.62233,3,3,Region
BROWNWOOD,brown,31.691441,-98.978723,2,4,Region
BRUCEVILLE-EDDY,mclennan,31.306931,-97.247839,2,2,Region
BRUNI,webb,27.42788,-98.837186,4,1,Region
BRYAN,denton,33.211542,-97.075864,2,5,Region
BUFFALO,leon,31.471314,-96.071514,3,2,Region
BULLARD,cherokee,32.13205,-95.31678,2,3,Region
BUNA,jasper,30.430632,-93.95726,3,2,Region
BURBANK,bexar,29.392884,-98.509277,4,4,Region
BURGES,el paso,31.784971,-106.384138,1,4,Region
BURKBURNETT,wichita,34.081094,-98.572901,1,3,Region
BURLESON,johnson,32.52903,-97.345731,1,5,Region
BURNET,burnet,30.774409,-98.230462,1,3,Region
BURTON,washington,30.183957,-96.598722,4,1,Region
BUSHLAND,potter,35.202279,-102.062278,1,2,Region
CADDO MILLS,hunt,33.079599,-96.228791,3,2,Region
CALALLEN,nueces,27.857635,-97.636446,4,4,Region
CALDWELL,burleson,30.548227,-96.67398,3,3,Region
CALHOUN,calhoun,28.62077,-96.642061,3,4,Region
CALLISBURG,cooke,33.70172,-97.01173,2,2,Region
CANADIAN,hemphill,35.908907,-100.385219,1,2,Region
CANTON,comal,29.685145,-98.132495,2,3,Region
CANUTILLO,el paso,31.897117,-106.58471,1,4,Region
CANYON,comal,29.685145,-98.132495,1,3,Region
CARNEGIE VANGUARD,harris,29.75418,-95.385391,3,5,Region
CARRIZO SPRINGS,dimmit,28.518902,-99.839834,4,3,Region
CARROLL,nueces,27.719114,-97.403744,4,5,Region
CARTER-RIVERSIDE,tarrant,32.782101,-97.299511999999993,1,4,Region
CARTHAGE,panola,32.160555,-94.347757,2,3,Region
CASTLEBERRY,tarrant,32.762309,-97.39288,2,3,Region
CAYUGA,anderson,31.92118,-95.923191,3,1,Region
CEDAR CREEK,bastrop,30.13835,-97.471641,4,5,Region
CEDAR PARK,williamson,30.471867,-97.843371,4,4,Region
CEDAR RIDGE,williamson,30.49276,-97.640331,2,4,Region
CELINA,collin,33.277359,-96.783939,2,3,Region
CENTENNIAL,collin,33.136267,-96.770097,2,4,Region
CENTER,shelby,31.803862,-94.20064,2,3,Region
CENTER POINT,kerr,29.941734,-99.034073,4,1,Region
CENTERVILLE,trinity,31.18135,-95.044027,3,1,Region
CENTRAL,tom green,31.46379,-100.450691,1,5,Region
CENTRAL HEIGHTS,nacogdoches,31.706309,-94.67829,3,3,Region
CHALLENGE EARLY COLLEGE,harris,29.72135,-95.457365,3,4,Region
CHAPEL HILL,titus,33.111064,-94.885474,3,2,Region
CHAPIN,el paso,31.845141,-106.444354,1,4,Region
CHICO,hamilton,31.993912,-98.023832,2,2,Region
CHILDRESS,childress,34.433204,-100.210216,1,3,Region
CHILLICOTHE,hardeman,34.253137,-99.511977,2,1,Region
CHINA SPRING,mclennan,31.629802,-97.287694,3,3,Region
CHIRENO,nacogdoches,31.496188,-94.350001,3,1,Region
CHISHOLM TRAIL,hunt,33.243807,-95.908204,1,5,Region
CHISUM,lamar,33.626189,-95.564523,2,2,Region
CHRISTOVAL,tom green,31.185433,-100.493504,1,2,Region
CHURCHILL,bexar,29.549842,-98.512516,4,5,Region
CINCO RANCH,fort bend,29.746905,-95.778611,3,5,Region
CISCO,eastland,32.377624,-98.99341,2,2,Region
CLARENDON,donley,34.939657,-100.898735,1,1,Region
CLARK,collin,33.058695,-96.703289,4,5,Region
CLEAR BROOK,harris,29.548052,-95.186898,3,5,Region
CLEAR CREEK,galveston,29.525354,-95.072334,3,5,Region
CLEAR FALLS,galveston,29.511103,-95.028684,3,5,Region
CLEAR LAKE,harris,29.582454,-95.105821,3,5,Region
CLEBURNE,johnson,32.345696,-97.423288,1,4,Region
CLEMENS,fort bend,29.575142,-95.633167,4,5,Region
CLEMENTS,fort bend,29.575142,-95.633167,3,5,Region
CLIFTON,bosque,31.788739,-97.590441,2,2,Region
CLINT,el paso,31.570637,-106.218532,1,3,Region
CLYDE,callahan,32.415502,-99.527265,1,2,Region
COAHOMA,howard,32.30284,-101.30563,1,2,Region
COLEMAN,coleman,31.809203,-99.424587,1,2,Region
COLLEGE PARK,montgomery,30.204219,-95.47175,2,5,Region
COLLEGE STATION,brazos,30.59275,-96.321641,3,3,Region
COLLEYVILLE-HERITAGE,tarrant,32.886628,-97.104022,1,5,Region
COLORADO,mitchell,32.404352,-100.848882,1,2,Region
COLUMBIA,brazoria,29.137502,-95.650609,3,3,Region
COLUMBUS,colorado,29.702155,-96.562041,3,3,Region
COMANCHE,comanche,31.912634,-98.595579,1,2,Region
COMFORT,kendall,29.994897,-98.902361,1,2,Region
COMMERCE,hunt,33.241807,-95.925454,2,3,Region
CONROE,montgomery,30.321424,-95.48414,2,5,Region
COOPER,delta,33.362255,-95.698676,1,3,Region
COPPELL,dallas,32.974672,-96.998599,1,5,Region
COPPERAS COVE,coryell,31.126675,-97.913112,2,6,Region
CORONADO,lubbock,33.564022,-101.917481,1,5,Region
COTULLA,la salle,28.43863,-99.235161,4,3,Region
CRANDALL,randall,35.11391,-101.899488,2,3,Region
CRAWFORD,mclennan,31.532058,-97.450909,2,2,Region
CREEKVIEW,denton,33.002931,-96.912432,2,5,Region
CROCKETT,houston,31.30046,-95.446861,3,4,Region
CROSBY,harris,29.899492,-95.066751,3,4,Region
CROSS PLAINS,callahan,32.131342,-99.16478,2,1,Region
CROSS ROADS,coryell,31.121249,-97.89983,3,2,Region
CROWLEY,tarrant,32.57833,-97.375702,2,4,Region
CRYSTAL CITY,zavala,28.69037,-99.821498,4,3,Region
CUERO,dewitt,29.09014,-97.28004,4,3,Region
CUMBY,hopkins,33.135552,-95.844699,3,1,Region
CYPRESS CREEK,harris,29.965823,-95.565165,3,5,Region
CYPRESS FALLS,harris,29.918588,-95.631662,3,5,Region
CYPRESS RANCH,harris,29.941119,-95.719693,2,5,Region
CYPRESS SPRINGS,harris,29.89285,-95.719945,3,5,Region
CYPRESS WOODS,harris,29.971016,-95.681547,2,5,Region
DAINGERFIELD,morris,33.014536,-94.718007,2,3,Region
DALHART,hartley,36.04971,-102.504712,1,3,Region
DANBURY,brazoria,29.223696,-95.341777,4,2,Region
DAVIS,harris,29.783725,-95.358,3,4,Region
DAWSON,navarro,31.897555,-96.710343,1,1,Region
DAYTON,liberty,30.064554,-94.90533,3,4,Region
DE KALB,bowie,33.507864,-94.622786,2,2,Region
DE LEON,comanche,32.11548,-98.536381,2,1,Region
DECATUR,wise,33.217782,-97.579184,1,3,Region
DEER PARK,harris,29.689186,-95.130251,3,5,Region
DEL RIO,val verde,29.383494,-100.919893,4,5,Region
DEL VALLE,el paso,31.692468,-106.296371,1,4,Region
DENISON,grayson,33.792047,-96.547438,1,4,Region
DENTON,denton,33.224883,-97.145326,1,4,Region
DENVER CITY,yoakum,32.970936,-102.837045,1,2,Region
DETROIT,red river,33.669816,-95.269303,3,1,Region
DEVINE,medina,29.148465,-98.91938,4,3,Region
DIBOLL,angelina,31.192639,-94.768227,3,4,Region
DILLEY,frio,28.675717,-99.172527,4,2,Region
DIMMITT,castro,34.54398,-102.33258,1,2,Region
DOBIE,harris,29.594985,-95.245842,3,5,Region
DRIPPING SPRINGS,hays,30.19823,-98.100971,4,4,Region
DUBLIN,erath,32.088,-98.321911,2,2,Region
DULLES,fort bend,29.619752,-95.584542,3,5,Region
DUMAS,moore,35.863213,-101.977726,1,4,Region
DUNBAR,tarrant,32.719218,-97.231946,1,4,Region
EARLY,brown,31.746482,-98.931272,1,2,Region
EARLY COLLEGE,webb,27.573429,-99.435233,4,5,Region
EAST BERNARD,wharton,29.526093,-96.066608,4,2,Region
EAST CENTRAL,bexar,29.352501,-98.295378,4,5,Region
EAST CHAMBERS,chambers,29.80538,-94.380744000000007,3,2,Region
EASTLAND,eastland,32.398545,-98.828165,1,2,Region
EASTWOOD,el paso,31.771665,-106.355003,1,5,Region
ECTOR,fannin,33.575836,-96.272315,3,1,Region
EDCOUCH-ELSA,hidalgo,26.299566,-97.9832,4,4,Region
EDGEWOOD,van zandt,32.692435,-95.874657,3,2,Region
EDINBURG,hidalgo,26.263237,-98.140574,4,5,Region
EDINBURG NORTH,hidalgo,26.331969,-98.158439,4,5,Region
EDISON,bexar,29.472289,-98.505191,4,4,Region
EDNA,jackson,28.964263,-96.652178,4,3,Region
EISENHOWER,harris,29.881955,-95.47182,3,5,Region
EL DORADO,schleicher,30.863719,-100.599582,1,5,Region
EL PASO,el paso,31.772886,-106.491063,1,4,Region
ELDORADO,schleicher,30.863719,-100.599582,2,1,Region
ELGIN,travis,30.366583,-97.404162,3,4,Region
ELKHART,anderson,31.628009,-95.581854,3,2,Region
ELSIK,harris,29.709904,-95.603352,3,5,Region
ELYSIAN FIELDS,harrison,32.38007,-94.144732,3,2,Region
ENNIS,ellis,32.304466,-96.626794,2,4,Region
EUSTACE,henderson,32.30296,-96.008183,2,3,Region
EVANT,coryell,31.473833,-98.152739,2,1,Region
EVERMAN,tarrant,32.619116,-97.288494,1,4,Region
FABENS,el paso,31.502079,-106.14775,1,4,Region
FAIRFIELD,freestone,31.717472,-96.141402,3,3,Region
FALFURRIAS,brooks,27.232359,-98.152502,4,3,Region
FALLS CITY,karnes,28.980331,-98.025658,4,1,Region
FARMERSVILLE,collin,33.168884,-96.369379,2,3,Region
FARWELL,parmer,34.380413,-103.03422,1,1,Region
FERRIS,ellis,32.530477,-96.650167,2,3,Region
FLORENCE,williamson,30.830934,-97.794784,4,2,Region
FLORESVILLE,wilson,29.145744,-98.152722,4,4,Region
FLOUR BLUFF,nueces,27.644397,-97.295932,4,4,Region
FLOWER MOUND,denton,33.033076,-97.081547,1,5,Region
FLOYDADA,floyd,33.979161,-101.346551,1,2,Region
FORNEY,kaufman,32.736524,-96.468384,2,4,Region
FORSAN,howard,32.11195,-101.3687,2,1,Region
FORT HANCOCK,hudspeth,31.289577,-105.848962,1,2,Region
FORT STOCKTON,pecos,30.901887,-102.891088,1,3,Region
FOSSIL RIDGE,tarrant,32.892852,-97.295658,1,6,Region
FOSTER,fort bend,29.627162,-95.810081,3,4,Region
FRANKLIN,robertson,31.022579,-96.50138,1,5,Region
FRANKSTON,anderson,32.06225,-95.504164,2,2,Region
FREDERICKSBURG,gillespie,30.260366,-98.881777,4,4,Region
FREER,duval,27.875831,-98.618783,4,3,Region
FRENSHIP,lubbock,33.51793,-102.012421,1,4,Region
FRIENDSWOOD,galveston,29.510802,-95.209882,3,4,Region
FRIONA,parmer,34.637799,-102.730824,1,2,Region
FRISCO,collin,33.131709,-96.822057,2,4,Region
FROST,navarro,32.079828,-96.812699,3,1,Region
FRUITVALE,van zandt,32.684515,-95.801628,3,1,Region
GAINESVILLE,cooke,33.603991,-97.159367,1,3,Region
GANADO,jackson,29.037716,-96.515826,4,2,Region
GARDEN CITY,glasscock,31.866378,-101.48482,2,1,Region
GARLAND,dallas,32.91015,-96.646812,2,5,Region
GARRISON,nacogdoches,31.82812,-94.489391,3,2,Region
GATESVILLE,coryell,31.432437,-97.724643,3,3,Region
GEORGE RANCH,fort bend,29.518717,-95.695359,3,4,Region
GEORGE WEST,live oak,28.329083,-98.1216,4,2,Region
GEORGETOWN,williamson,30.661819,-97.666511,2,5,Region
GIDDINGS,lee,30.202315,-96.930911,3,3,Region
GILMER,upshur,32.731362,-94.956206,2,3,Region
GLEN ROSE,somervell,32.231576,-97.765328,1,3,Region
GODLEY,johnson,32.454794,-97.544607,1,4,Region
GOLDTHWAITE,mills,31.453855,-98.577815,4,1,Region
GOLIAD,goliad,28.677255,-97.394153,4,3,Region
GONZALES,gonzales,29.521521,-97.438463,4,3,Region
GOODRICH,polk,30.606346,-94.945071,3,1,Region
GOOSE CREEK MEMORIAL,harris,29.823853,-94.968571,3,4,Region
GORMAN,eastland,32.208394,-98.675841,3,1,Region
GRADY,mcculloch,31.10753,-99.338921,1,1,Region
GRAFORD,palo pinto,32.939565,-98.252417,3,1,Region
GRAHAM,young,33.096475,-98.581492,1,3,Region
GRANBURY,hood,32.439578,-97.810423,1,4,Region
GRAND SALINE,van zandt,32.685533,-95.713811,3,2,Region
GRANDVIEW,johnson,32.263475,-97.176234,2,2,Region
GRAPEVINE,tarrant,32.91568,-97.119021,1,5,Region
GREENWOOD,midland,32.02378,-101.895358,1,3,Region
GREGORY-PORTLAND,san patricio,27.903467,-97.323406,4,4,Region
GROESBECK,limestone,31.538977,-96.524343,3,3,Region
GRUVER,hansford,36.261648,-101.400335,1,1,Region
GUNTER,grayson,33.457626,-96.73758,2,2,Region
GUYER,denton,33.135663,-97.103456,1,4,Region
HALLETTSVILLE,lavaca,29.447363,-96.935069,4,2,Region
HALLSVILLE,harrison,32.5147,-94.590751,2,4,Region
HALTOM,tarrant,32.848206,-97.279777,1,6,Region
HAMILTON,hamilton,31.698771,-98.128132,2,2,Region
HAMLIN,jones,32.8788,-100.132977,2,1,Region
HAMSHIRE-FANNETT,jefferson,29.862641,-94.3144,3,3,Region
HANNA,collin,33.360926,-96.550882,4,5,Region
HAPPY,swisher,34.746226,-101.860928,1,1,Region
HARDIN,liberty,30.156776,-94.73436,3,2,Region
HARDIN-JEFFERSON,hardin,30.103736,-94.40581,3,3,Region
HARGRAVE,harris,30.042333,-95.059807,3,3,Region
HARKER HEIGHTS,bell,31.056837,-97.651118,2,5,Region
HARLETON,harrison,32.67733,-94.57145,3,1,Region
HARLINGEN,cameron,26.20793,-97.683689,4,5,Region
HARMONY,upshur,32.754279,-95.108978,3,2,Region
HARMONY SCIENCE ACADEMY,harris,29.679907,-95.558958,4,2,Region
HARPER,gillespie,30.301925,-99.244797,4,1,Region
HASKELL,haskell,33.163528,-99.733197,1,1,Region
HASTINGS,harris,29.709859,-95.597954,3,5,Region
HEALTH CAREERS,bexar,29.520596,-98.578849,4,5,Region
HEBRON,denton,33.035521,-96.858636,2,4,Region
HEMPHILL,sabine,31.346412,-93.847049,3,2,Region
HEMPSTEAD,waller,30.083392,-96.07723,3,3,Region
HENDRICKSON,travis,30.464251,-97.588671,4,4,Region
HERITAGE,collin,33.17709,-96.754511,2,4,Region
HICO,hamilton,31.993912,-98.023832,2,2,Region
HIGH ISLAND,galveston,29.563727,-94.390309,4,1,Region
HIGHLAND,bexar,29.389605,-98.442819,2,1,Region
HIGHLAND PARK,potter,35.250132,-101.654804,2,4,Region
HIGHTOWER,fort bend,29.531608,-95.497847,3,5,Region
HILLCREST,dallas,32.883211,-96.785593,2,4,Region
HILLSBORO,hill,31.982956,-97.127612,1,3,Region
HIRSCHI,wichita,33.933954,-98.528622,1,3,Region
HOLLAND,bell,30.879839,-97.409594,3,1,Region
HOLLIDAY,archer,33.810669,-98.689016,1,2,Region
HONDO,medina,29.341546,-99.135524,4,3,Region
HONEY GROVE,fannin,33.591358,-95.900085,2,2,Region
HOOKS,bowie,33.467853,-94.284053,2,2,Region
HORIZON,el paso,31.684482,-106.170095,1,4,Region
HORN,dallas,32.731652,-96.557413,2,5,Region
HOUSTON,bexar,29.424656,-98.399299,1,5,Region
HOWE,hidalgo,26.227331,-98.261031,2,2,Region
HUBBARD,hill,31.835553,-96.812684,3,1,Region
HUDSON,bexar,29.509676,-98.306675,3,3,Region
HUGHES SPRINGS,cass,33.006722,-94.636089,3,2,Region
HUMBLE,harris,29.982781,-95.246671,3,5,Region
HUNTSVILLE,walker,30.741103,-95.536608,3,4,Region
HUTTO,williamson,30.53636,-97.562251,3,3,Region
IDALOU,lubbock,33.65992,-101.683182,1,2,Region
IDEA COLLEGE PREP,hidalgo,26.166611,-98.064791,4,2,Region
INDUSTRIAL,jackson,28.819352,-96.615769,4,2,Region
INGLESIDE,san patricio,27.876711,-97.218955,4,3,Region
INGRAM TOM MOORE,kerr,30.074421,-99.252053,1,3,Region
IOLA,grimes,30.767915,-96.072966,4,2,Region
IOWA PARK,wichita,33.96259,-98.693211,1,3,Region
IRAAN,pecos,30.909272,-101.901069,1,1,Region
IRVING,dallas,32.824989,-96.949999,1,5,Region
ITASCA,hill,32.164515,-97.145293,2,2,Region
JACKSBORO,jack,33.227562,-98.170604,2,2,Region
JACKSONVILLE,cherokee,31.953581,-95.250778,3,4,Region
JARRELL,williamson,30.81484,-97.627411,4,2,Region
JASPER,collin,33.067659,-96.783258,3,3,Region
JAY,nueces,27.753053,-97.394459,4,5,Region
JAYTON,liberty,30.064554,-94.90533,2,1,Region
JEFFERSON,bexar,29.465178,-98.538604,4,4,Region
JIM NED,taylor,32.213199,-99.797673,1,2,Region
JOAQUIN,shelby,31.965934,-94.049919,3,2,Region
JOHNSON,bexar,29.65601,-98.435461,4,4,Region
JOSHUA,johnson,32.450188,-97.381962,1,4,Region
JOURDANTON,atascosa,28.90855,-98.53974,4,2,Region
JUAREZ-LINCOLN,hidalgo,26.328461,-98.39881,4,4,Region
JUAREZ LINCOLN,hidalgo,26.328461,-98.39881,4,4,Region
JUDSON,bexar,29.509676,-98.306675,4,5,Region
JUNCTION,kimble,30.487931,-99.778789,1,2,Region
KARNES CITY,karnes,28.88788,-97.892055,4,2,Region
KASHMERE,harris,29.822509,-95.31509,3,4,Region
KATY,fort bend,29.78303,-95.833011,3,5,Region
KAUFER,kleberg,27.297364,-97.810176,4,2,Region
KAUFMAN,kaufman,32.56571,-96.312653,2,3,Region
KEENE,johnson,32.391655,-97.318027,2,2,Region
KELLER,tarrant,32.939775,-97.23284,1,5,Region
KELTON,bell,31.087049,-97.47023,1,1,Region
KEMP,kaufman,32.428717,-96.228318,2,3,Region
KENNARD,houston,31.361512,-95.180123,3,1,Region
KENNEDALE,tarrant,32.652528,-97.19877,2,3,Region
KENNEDY,karnes,28.82996,-97.84628,4,4,Region
KERMIT,winkler,31.856044,-103.082649,1,3,Region
KERR,harris,29.691573000000002,-95.635351,3,4,Region
KILLEEN,bell,31.112203,-97.697753,2,4,Region
KING,nueces,27.718759,-97.370808,4,5,Region
KINGWOOD,harris,30.045404,-95.1956,3,5,Region
KINGWOOD PARK,harris,30.072554,-95.212994,3,4,Region
KIRBYVILLE,jasper,30.65076,-93.89478,3,3,Region
KLEIN,harris,30.019784,-95.523551,2,5,Region
KLEIN COLLINS,harris,30.061406,-95.478787,2,5,Region
KLEIN OAK,harris,30.096835,-95.518429,3,4,Region
KNOX CITY,knox,33.421011,-99.814856,2,1,Region
KRESS,swisher,34.364827,-101.744375,1,1,Region
KRUM,denton,33.264058,-97.226873,2,2,Region
LA FERIA,cameron,26.16457,-97.82841,4,3,Region
LA GRANGE,fayette,29.901872,-96.865098,3,3,Region
LA JOYA,hidalgo,26.252828,-98.471061,4,5,Region
LA PORTE,harris,29.654727,-95.014766,3,5,Region
LA PRYOR,zavala,28.944951,-99.843145,4,1,Region
LA VERNIA,wilson,29.351514,-98.123041,4,3,Region
LAGO VISTA,travis,30.44083,-97.97971,4,2,Region
LAKE TRAVIS,travis,30.327406,-97.969977,4,4,Region
LAKE VIEW,tom green,31.504509,-100.443978,1,4,Region
LAKE WORTH,tarrant,32.820221,-97.416781,2,3,Region
LAMAR,harris,29.740249,-95.426211,1,5,Region
LAMAR CONS,fort bend,29.560382,-95.77922,3,4,Region
LAMPASAS,lampasas,31.0417,-98.181691,4,4,Region
LANGHAM CREEK,harris,29.881564,-95.677156,3,5,Region
LANIER,bexar,29.422645,-98.514094,3,4,Region
LASARA,willacy,26.46347,-97.90767,4,1,Region
LATEXO,houston,31.394522,-95.472877,4,1,Region
LEE,bexar,29.507518,-98.515972,1,5,Region
LEGGETT,polk,30.816335,-94.867259,3,1,Region
LEON,leon,31.320472,-96.205401,2,2,Region
LEONARD,fannin,33.389957,-96.241894,2,2,Region
LEVELLAND,hockley,33.58374,-102.349732,1,3,Region
LIBERTY,liberty,30.074786,-94.787879,3,3,Region
LIBERTY HILL,williamson,30.680323,-97.953654,4,3,Region
LINDALE,smith,32.514253,-95.396751,2,3,Region
LINDSAY,cooke,33.6366,-97.2373,2,1,Region
LIPAN,hood,32.521386,-98.047207,3,1,Region
LITTLE ELM,denton,33.181484,-96.907019,2,4,Region
LITTLEFIELD,lamb,33.916485,-102.34253,1,3,Region
LIVINGSTON,polk,30.71721,-94.966961,3,4,Region
LLANO,llano,30.732967,-98.681851,4,3,Region
LOCKHART,caldwell,29.872594,-97.677369,4,4,Region
LOCKNEY,floyd,34.12102,-101.446508,1,2,Region
LONDON,nueces,27.68894,-97.479511,4,1,Region
LONE OAK,hunt,32.986056,-95.931176,3,2,Region
LONE STAR,denton,33.19111,-96.86629,2,3,Region
LONGVIEW,gregg,32.544968,-94.743574,2,5,Region
LOS FRESNOS,cameron,26.074714,-97.482913,4,5,Region
LOVEJOY,collin,33.101881,-96.613431,2,3,Region
LUBBOCK,lubbock,33.578611,-101.860861,1,5,Region
LUFKIN,angelina,31.335757,-94.687814,2,5,Region
LULING,caldwell,29.677839,-97.654262,4,3,Region
LUMBERTON,hardin,30.238024,-94.196281,3,4,Region
LYFORD,willacy,26.409885,-97.799253,4,3,Region
LYTLE,medina,29.236923,-98.807006,4,3,Region
MABANK,kaufman,32.372524,-96.110146,2,3,Region
MACARTHUR,bexar,29.5293,-98.44085,4,5,Region
MADISON,bexar,29.581719,-98.391303,4,5,Region
MADISONVILLE,madison,30.945,-95.905634,3,3,Region
MAGNOLIA,montgomery,30.227815,-95.687105,2,5,Region
MALAKOFF,henderson,32.175978,-96.034366,2,2,Region
MANOR,travis,30.353329,-97.562329,3,4,Region
MANSFIELD,tarrant,32.573989,-97.090384,1,6,Region
MANVEL,brazoria,29.47208,-95.36514,3,4,Region
MARCUS,denton,33.064443,-97.062779,1,5,Region
MARION,guadalupe,29.567002,-98.141147,4,3,Region
MARSHALL,bexar,29.513856,-98.620165,4,5,Region
MART,mclennan,31.541492,-96.828088,3,2,Region
MARTIN,webb,27.518485,-99.505431,1,5,Region
MASON,mason,30.743288,-99.241911,4,2,Region
MATHIS,san patricio,28.08435,-97.813314,4,2,Region
MAY,nueces,27.753053,-97.394459,2,1,Region
MCALLEN,hidalgo,26.226353,-98.238343,4,6,Region
MCCALLUM,bexar,29.343467,-98.512276,3,4,Region
MCCAMEY,upton,31.126384,-102.219796,1,1,Region
MCCOLLUM,bexar,29.343467,-98.512276,4,4,Region
MCGREGOR,mclennan,31.427047,-97.405031,2,2,Region
MCKINNEY,collin,33.188204,-96.632484,2,4,Region
MCKINNEY NORTH,collin,33.23079,-96.642368,2,4,Region
MCLEOD,cass,32.948789,-94.083276,3,1,Region
MCNEIL,travis,30.449115,-97.732611,2,5,Region
MEDINA VALLEY,medina,29.344272,-98.839257,4,4,Region
MELISSA,collin,33.291097,-96.576374,2,2,Region
MEMORIAL,harris,29.780637,-95.523794,3,5,Region
MEMPHIS,hall,34.735251,-100.548754,1,1,Region
MENARD,menard,30.91341,-99.790401,2,1,Region
MERIDIAN,bosque,31.92703,-97.653509,3,1,Region
MESQUITE,dallas,32.765474,-96.595991,2,5,Region
MIDLAND,midland,31.999754,-102.08437,1,5,Region
MIDLOTHIAN,ellis,32.49141,-96.993961,2,4,Region
MIDLOTHIAN HERITAGE,ellis,32.487544,-96.943673,1,4,Region
MIDWAY,mclennan,31.483524,-97.199404,2,4,Region
MILANO,milam,30.713661,-96.86958,4,1,Region
MILDRED,navarro,32.03589,-96.378056,2,2,Region
MILES,runnels,31.605446,-100.186383,2,1,Region
MINEOLA,wood,32.670662,-95.500273000000007,2,3,Region
MINERAL WELLS,palo pinto,32.816884,-98.07774,1,3,Region
MISSION,hidalgo,26.223409,-98.329881,4,4,Region
MISSION EARLY COLLEGE,el paso,31.679061,-106.26542,1,5,Region
MONAHANS,ward,31.586865,-102.893073,1,3,Region
MONTGOMERY,montgomery,30.387458,-95.721473,3,4,Region
MONTWOOD,el paso,31.762661,-106.276636,1,5,Region
MOODY,mclennan,31.285147,-97.367952,2,2,Region
MOULTON,lavaca,29.57887,-97.147471,4,1,Region
MOUNT PLEASANT,titus,33.177269,-94.990102,2,4,Region
MOUNTAIN VIEW,el paso,31.79735,-106.158507,1,4,Region
MUENSTER,cooke,33.656091,-97.374628,2,1,Region
MULESHOE,bailey,34.226205,-102.728625,1,3,Region
MULLIN,mills,31.555939,-98.670882,4,1,Region
NAAMAN FOREST,dallas,32.957845,-96.63769,2,5,Region
NACOGDOCHES,nacogdoches,31.643311,-94.621646,3,4,Region
NATALIA,medina,29.187649,-98.854026,4,2,Region
NAVARRO,guadalupe,29.656107,-97.967026,4,2,Region
NAVASOTA,grimes,30.400588,-96.06911,3,3,Region
NECHES,anderson,31.874884,-95.47581,3,1,Region
NEDERLAND,jefferson,29.982055,-94.011981,3,4,Region
NEEDVILLE,fort bend,29.37069,-95.80059,4,3,Region
NEW BOSTON,bowie,33.456898,-94.420033,2,3,Region
NEW BRAUNFELS,comal,29.718688,-98.14995,4,4,Region
NEW CANEY,montgomery,30.132424,-95.221678,3,4,Region
NEW DEAL,lubbock,33.731329,-101.839759,1,1,Region
NEW DIANA,upshur,32.708613,-94.751388,3,2,Region
NEW HOME,williamson,30.573799,-97.852119,1,1,Region
NEW WAVERLY,walker,30.523605,-95.486234,4,2,Region
NIXON,webb,27.52623,-99.475216,4,5,Region
NIXON SMILEY,gonzales,29.275452,-97.76461,4,2,Region
NOCONA,montague,33.797303,-97.729873,1,2,Region
NORMANGEE,leon,31.026895,-96.123415,4,1,Region
NORTH CROWLEY,tarrant,32.610056,-97.394814,1,5,Region
NORTH DALLAS,dallas,32.810317,-96.79512,2,4,Region
NORTH FORNEY,kaufman,32.765313,-96.406797,2,3,Region
NORTH HOPKINS,hopkins,33.271232,-95.619107,3,1,Region
NORTH LAMAR,lamar,33.692585,-95.55164,2,4,Region
NORTH MESQUITE,dallas,32.80904,-96.629249,2,5,Region
NORTH SIDE,tarrant,32.78398,-97.371886,1,5,Region
NORTHSIDE,tarrant,32.78398,-97.371886,2,1,Region
NORTHWEST,denton,33.025181,-97.313424,2,4,Region
OAK RIDGE,montgomery,30.170968,-95.443717,2,5,Region
OAKWOOD,leon,31.587178,-95.853531,3,1,Region
ODEM,san patricio,27.950584,-97.590051,4,2,Region
ODESSA,ector,31.851308,-102.382562,1,5,Region
ORANGE GROVE,jim wells,27.950272,-97.940214,4,3,Region
ORE CITY,upshur,32.807173,-94.720556,3,2,Region
OVERTON,rusk,32.27628,-94.977991,3,1,Region
OZONA,crockett,30.713734,-101.201105,1,2,Region
PALACIOS,matagorda,28.70726,-96.23617,4,3,Region
PALESTINE,anderson,31.738192,-95.604569,3,3,Region
PALMER,ellis,32.428071,-96.683125,2,2,Region
PAMPA,gray,35.550377,-100.964504,1,4,Region
PANHANDLE,carson,35.352088,-101.383062,1,2,Region
PARADISE,wise,33.14471,-97.694061,2,2,Region
PARIS,lamar,33.64068,-95.53285,2,3,Region
PARKLAND,el paso,31.902358,-106.402197,1,4,Region
PASCHAL,tarrant,32.707873,-97.350733,1,5,Region
PEARCE,dallas,32.972643,-96.768258,2,4,Region
PEARLAND,brazoria,29.538787,-95.270268,3,5,Region
PEARSALL,frio,28.902817,-99.08884,4,3,Region
PEASTER,parker,32.869291,-97.865968,2,2,Region
PECOS,reeves,31.413818,-103.503688,1,3,Region
PERMIAN,ector,31.886886,-102.357691,1,5,Region
PERRYTON,ochiltree,36.388202,-100.816167,1,3,Region
PEWITT,morris,33.185449,-94.711213,3,2,Region
PFLUGERVILLE,travis,30.444395,-97.632462,4,5,Region
PILOT POINT,denton,33.410711,-96.947887,1,3,Region
PINE TREE,gregg,32.515781,-94.780685,3,4,Region
PLAINS,yoakum,33.189068,-102.82558,1,1,Region
PLAINVIEW,hale,34.196976,-101.725467,1,4,Region
PLANO,llano,30.732967,-98.681851,1,5,Region
PLANO EAST SR,collin,33.03914,-96.64562,2,5,Region
PLANO SR,collin,33.029036,-96.752083,2,5,Region
PLEASANT GROVE,bowie,33.464873,-94.110108,2,3,Region
PLEASANTON,atascosa,28.965947,-98.467539,4,3,Region
PONDER,denton,33.185284,-97.291466,2,2,Region
POOLVILLE,parker,32.972401,-97.860985,2,1,Region
PORT ARANSAS,nueces,27.83238,-97.060292,4,1,Region
PORT NECHES-GROVES,jefferson,29.98876,-93.953353,3,4,Region
PORTER,montgomery,30.11833,-95.269691,4,5,Region
POST,garza,33.184848,-101.381032,1,2,Region
POTEET,atascosa,29.047297,-98.565937,2,4,Region
POTH,wilson,29.075261,-98.081582,4,2,Region
POTTSBORO,grayson,33.76467,-96.6525,2,2,Region
PRAIRIE VALLEY,montague,33.893654,-97.724,2,1,Region
PRAIRILAND,lamar,33.573413,-95.392665,2,2,Region
PRESIDIO,presidio,29.552206,-104.356111,1,3,Region
PRINCETON,collin,33.173435,-96.488518,2,3,Region
PROGRESO,hidalgo,26.098713,-97.957445,4,3,Region
PROSPER,collin,33.2486,-96.7884,2,2,Region
QUANAH,hardeman,34.294242,-99.745546,1,1,Region
QUEEN CITY,cass,33.149998,-94.137393,3,2,Region
QUITMAN,wood,32.797596,-95.427737,3,2,Region
RAINS,rains,32.890475,-95.790372,2,3,Region
RALLS,crosby,33.681245,-101.380587,1,1,Region
RANCHVIEW,dallas,32.918611,-96.945226,1,3,Region
RANDALL,randall,35.11391,-101.899488,1,4,Region
RANDOLPH,bexar,29.527682,-98.295646,4,2,Region
RANGER,denton,33.369494,-97.160243,2,1,Region
RANKIN,upton,31.229172,-101.941216,1,1,Region
RAY,nueces,27.753053,-97.394459,4,4,Region
RAYBURN,fannin,33.768151,-96.10456,3,1,Region
RAYMONDVILLE,willacy,26.46872,-97.775221,4,3,Region
REAGAN,bexar,29.619263,-98.488156,4,5,Region
RED OAK,ellis,32.512021,-96.803575,2,4,Region
REDWATER,bowie,33.365337,-94.248794,3,2,Region
REFUGIO,refugio,28.314549,-97.275031,4,2,Region
RICHARDSON,dallas,32.951842,-96.762249,2,5,Region
RIDER,wichita,33.862402,-98.56869,1,4,Region
RIDGE POINT,fort bend,29.48375,-95.515071,3,5,Region
RIO GRANDE CITY,starr,26.407631,-98.762724,4,5,Region
RIVER ROAD,potter,35.30773,-101.832972,1,2,Region
RIVERCREST,red river,33.471798,-95.220646,3,1,Region
RIVERSIDE,el paso,31.733811,-106.372636,1,4,Region
ROBINSON,mclennan,31.46195,-97.121801,3,3,Region
ROBSTOWN,nueces,27.801235,-97.676748,4,3,Region
ROCKDALE,milam,30.651977,-97.017393,3,3,Region
ROCKPORT-FULTON,aransas,28.04139,-97.04492,4,4,Region
ROCKSPRINGS,edwards,30.016801,-100.204883,4,1,Region
ROCKWALL,rockwall,32.904942,-96.458371,2,5,Region
ROCKWALL-HEATH,rockwall,32.84624,-96.472381,2,5,Region
ROGERS,bell,30.932405,-97.22737,4,2,Region
ROMA,starr,26.443172,-99.026311,4,4,Region
ROOSEVELT,lubbock,33.582961,-101.674734,4,5,Region
ROSEBUD-LOTT,falls,31.139078,-97.00668,3,2,Region
ROTAN,fisher,32.852744,-100.464446,2,1,Region
ROUND TOP-CARMINE,fayette,30.143919,-96.68137,4,1,Region
ROWLETT,dallas,32.902184,-96.554057,2,5,Region
ROYAL,waller,29.80277,-95.969491,3,3,Region
ROYSE CITY,hunt,32.974033,-96.292017,2,3,Region
RUSK,cherokee,31.781633,-95.143978,3,3,Region
RYAN,denton,33.211542,-97.075864,1,5,Region
SABINAL,uvalde,29.326395,-99.472076,4,1,Region
SABINE,gregg,32.446246,-94.951818,2,3,Region
SACHSE,dallas,32.96145,-96.586641,2,5,Region
SAGINAW,tarrant,32.8526,-97.3454,1,4,Region
SAINT JO,montague,33.690885,-97.522223,3,1,Region
SALADO,bell,30.9663,-97.538861,4,2,Region
SAN AUGUSTINE,san augustine,31.535399,-94.099797,3,2,Region
SAN BENITO,cameron,26.141946,-97.651938,4,5,Region
SAN DIEGO,duval,27.754715,-98.246526,4,3,Region
SAN ISIDRO,starr,26.71702,-98.453559,4,1,Region
SAN MARCOS,hays,29.82269,-97.947791,4,5,Region
SAN SABA,san saba,31.195793,-98.72771,1,2,Region
SANDERSON,travis,30.375754,-97.753617,1,1,Region
SANFORD-FRITCH,hutchinson,35.645372,-101.580425,1,2,Region
SANGER,denton,33.369494,-97.160243,1,3,Region
SANTA GERTRUDIS ACADEMY,kleberg,27.522454,-97.881569,4,2,Region
SANTA ROSA,cameron,26.253452,-97.823834,4,2,Region
SANTO,palo pinto,32.605209,-98.210488,2,1,Region
SAVOY,fannin,33.601052,-96.369234,3,1,Region
SCARBOROUGH,harris,29.829261,-95.470797,3,4,Region
SCURRY-ROSSER,kaufman,32.513825,-96.382556,2,2,Region
SEAGOVILLE,dallas,32.677602,-96.58369,2,4,Region
SEALY,austin,29.762086,-96.17435,3,3,Region
SEGUIN,guadalupe,29.575921,-97.947206,1,4,Region
SEMINOLE,gaines,32.722953,-102.670232,1,3,Region
SEVEN LAKES,fort bend,29.707876,-95.80752,3,4,Region
SEYMOUR,baylor,33.592187,-99.245872,1,2,Region
SHALLOWATER,lubbock,33.694644,-101.991052,1,2,Region
SHAMROCK,wheeler,35.214347,-100.239457,1,1,Region
SHARYLAND,hidalgo,26.21239,-98.284048,4,5,Region
SHARYLAND PIONEER,hidalgo,26.300144,-98.266298,4,5,Region
SHEPHERD,san jacinto,30.495138,-94.99667,3,3,Region
SHERMAN,grayson,33.643629,-96.58308,1,4,Region
SHINER,lavaca,29.445729,-97.184692,4,1,Region
SILSBEE,hardin,30.344707,-94.148121,3,3,Region
SINTON,san patricio,28.040674,-97.496647,4,3,Region
SKIDMORE-TYNAN,bee,28.25562,-97.687731,4,2,Region
SLATON,lubbock,33.436311,-101.660289,1,2,Region
SLOCUM,anderson,31.63181,-95.462461,4,1,Region
SMITH,dallas,32.979363,-96.891554,2,4,Region
SMITHSON VALLEY,comal,29.802641,-98.36005,4,4,Region
SMITHVILLE,bastrop,29.997995,-97.166184,3,3,Region
SNYDER,scurry,32.702533,-100.929153,1,3,Region
SOCORRO,el paso,31.658789,-106.293095,1,5,Region
SOMERSET,bexar,29.229111,-98.650833,4,3,Region
SONORA,sutton,30.55663,-100.637191,1,2,Region
SOUTH GRAND PRAIRIE,dallas,32.695314,-97.005577,1,5,Region
SOUTH OAK CLIFF,dallas,32.699658,-96.81522,2,4,Region
SOUTH SAN ANTONIO,bexar,29.349565,-98.548363,4,4,Region
SOUTHSIDE,bexar,29.234092,-98.474901,4,4,Region
SOUTHWEST,bexar,29.307748,-98.672806,4,5,Region
SPEARMAN,hansford,36.185861,-101.187603,1,2,Region
SPLENDORA,montgomery,30.247654,-95.197659,3,3,Region
SPRING HILL,gregg,32.564389,-94.795315,2,3,Region
SPRINGTOWN,parker,32.965236,-97.698258,1,4,Region
SPURGER,tyler,30.69517,-94.178587,4,1,Region
STAFFORD,jones,32.940139,-99.793332,4,3,Region
STAMFORD,jones,32.940139,-99.793332,1,2,Region
STANTON,martin,32.13065,-101.80521,1,2,Region
STEPHENVILLE,erath,32.21687,-98.236581,1,4,Region
STERLING,harris,29.636206,-95.322675,3,4,Region
STERLING CITY,sterling,31.84051,-100.988696,2,1,Region
STOCKDALE,wilson,29.230528,-97.961084,4,2,Region
STRATFORD,sherman,36.341086,-102.076303,3,5,Region
SUDAN,lamb,34.063059,-102.529376,1,1,Region
SULPHUR SPRINGS,hopkins,33.138137,-95.619352,2,4,Region
SUNDOWN,hockley,33.4599,-102.485968,1,1,Region
SUNNYVALE,dallas,32.795284,-96.561099,2,2,Region
SWEENY,brazoria,29.0497,-95.70536,4,3,Region
SWEETWATER,nolan,32.480268,-100.40519,1,3,Region
TAFT,san patricio,27.987395,-97.388512,4,2,Region
TAHOKA,lynn,33.169443,-101.806945,1,2,Region
TARKINGTON,liberty,30.31493,-94.963471,3,3,Region
TATUM,rusk,32.321275,-94.516974,3,2,Region
TAYLOR,williamson,30.54928,-97.431261,3,5,Region
TEAGUE,freestone,31.633584,-96.263439,3,2,Region
TEMPLE,bell,31.106923,-97.353588,2,5,Region
TERRELL,kaufman,32.762571,-96.28008,2,5,Region
THE COLONY,denton,33.075876,-96.887042,2,4,Region
THE WOODLANDS,montgomery,30.194371,-95.50343,2,5,Region
THORNDALE,milam,30.616197,-97.206589,4,1,Region
THRALL,williamson,30.589694,-97.295725,4,1,Region
TIMBER CREEK,tarrant,32.94948,-97.28698,1,6,Region
TIMPSON,shelby,31.906425,-94.38956,3,1,Region
TIVY,kerr,30.037547,-99.109162,4,4,Region
TLC ACADEMY,tom green,31.4379,-100.5056,1,1,Region
TOLAR,hood,32.381971,-97.931932,2,1,Region
TOM BEAN,grayson,33.527551,-96.497855,2,2,Region
TOMBALL MEMORIAL,harris,30.033813,-95.634521,3,3,Region
TORNILLO,el paso,31.460883,-106.090759,1,3,Region
TRAVIS,travis,30.234386,-97.744723,4,4,Region
TRENTON,fannin,33.426788,-96.341188,3,1,Region
TRINITY,trinity,30.959238,-95.35244,3,2,Region
TROUP,smith,32.153703,-95.112421,3,2,Region
TROY,bell,31.210753,-97.306383,2,2,Region
TULIA,swisher,34.542038,-101.757699,1,2,Region
TULOSO-MIDWAY,nueces,27.829209,-97.57543,4,4,Region
TURNER,dallas,32.947734,-96.891431,2,5,Region
UNION GROVE,upshur,32.56917,-94.923071,3,2,Region
UNION HILL,upshur,32.812723,-94.97967,3,1,Region
UNITED,webb,27.62445,-99.46563,4,5,Region
UNITED SOUTH,webb,27.477495,-99.450386,4,5,Region
UVALDE,uvalde,29.220683,-99.781995,4,4,Region
VALLEY MILLS,mclennan,31.645663,-97.453589,3,1,Region
VALLEY VIEW,cooke,33.481167,-97.161779,2,1,Region
VAN,van zandt,32.535657,-95.638351,2,3,Region
VAN ALSTYNE,grayson,33.439441,-96.584935,2,3,Region
VAN VLECK,matagorda,29.017084,-95.887402,4,2,Region
VANDEGRIFT,travis,30.39665,-97.826601,1,3,Region
VEGA,oldham,35.25021,-102.41886,1,1,Region
VELA,oldham,35.25021,-102.41886,4,5,Region
VENUS,johnson,32.425299,-97.103375,1,3,Region
VERIBEST,tom green,31.47721,-100.258805,2,1,Region
VERNON,wilbarger,34.147649,-99.31295,1,3,Region
VETERANS MEMORIAL,hidalgo,26.24196,-98.315393,4,4,Region
VICTORIA WEST,victoria,28.861185,-97.033494,4,4,Region
VISTA RIDGE,williamson,30.516798,-97.786159,4,4,Region
WAKELAND,denton,33.168295,-96.845707,2,3,Region
WALL,tom green,31.373268,-100.308504,1,2,Region
WALLER,harris,30.078599,-95.920344,3,4,Region
WALTRIP,harris,29.818407,-95.432245,3,4,Region
WARREN,tyler,30.612306,-94.392074,3,2,Region
WASKOM,harrison,32.47541,-94.072014,3,2,Region
WATER VALLEY,tom green,31.66791,-100.718524,2,1,Region
WAXAHACHIE,ellis,32.4138,-96.837191,2,4,Region
WEIMAR,colorado,29.703953,-96.788001,4,2,Region
WELLINGTON,collingsworth,34.848674,-100.214353,1,1,Region
WELLS,cherokee,31.487771,-94.937589,4,1,Region
WESLACO,hidalgo,26.167878,-98.000573,4,5,Region
WESLACO EAST,hidalgo,26.152364,-97.969948,4,4,Region
WEST HARDIN,hardin,30.258099,-94.561799,3,2,Region
WEST ORANGE-STARK,orange,30.075836,-93.766465,3,3,Region
WEST RUSK,rusk,32.23925,-94.941012,3,2,Region
WEST SABINE,sabine,31.249979,-93.983182,3,2,Region
WEST TEXAS,hutchinson,35.825721,-101.449461,1,2,Region
WESTERN HILLS,tarrant,32.717908,-97.456182,1,4,Region
WESTFIELD,harris,30.007244,-95.446904,3,5,Region
WESTLAKE,travis,30.276152,-97.81564,2,5,Region
WESTSIDE,harris,29.754148,-95.638114,3,5,Region
WESTWOOD,anderson,31.739049,-95.605141,2,5,Region
WHARTON,wharton,29.328142,-96.091922,4,3,Region
WHEATLEY,harris,29.771918,-95.319759,3,4,Region
WHITE DEER,carson,35.429244,-101.172967,1,1,Region
WHITE OAK,gregg,32.532006,-94.860993,2,3,Region
WHITEFACE,cochran,33.600784,-102.618182,1,1,Region
WHITEHOUSE,smith,32.232353,-95.213833,3,4,Region
WHITESBORO,grayson,33.661711,-96.923002,1,3,Region
WHITEWRIGHT,grayson,33.504622,-96.395729,2,2,Region
WHITNEY,hill,31.961848,-97.321328,2,3,Region
WICHITA FALLS,wichita,33.893695,-98.517041,1,4,Region
WILLIS,montgomery,30.392317,-95.477105,3,4,Region
WILLS POINT,van zandt,32.70792,-96.029318,2,3,Region
WIMBERLEY,hays,30.00529,-98.115710000000007,4,3,Region
WINDTHORST,archer,33.574716,-98.439533,2,1,Region
WINK,winkler,31.753881,-103.151986,1,1,Region
WINN,winkler,31.753881,-103.151986,4,5,Region
WINNSBORO,wood,32.953055,-95.295489,2,3,Region
WINONA,smith,32.491885,-95.183777,3,2,Region
WINTERS,runnels,31.965761,-99.960472,2,1,Region
WODEN,nacogdoches,31.504731,-94.529061,3,2,Region
WOLFE CITY,hunt,33.367506,-96.074996,2,2,Region
WOODSBORO,refugio,28.233801,-97.321546,4,1,Region
WOODVILLE,tyler,30.78559,-94.43413,3,2,Region
WORTHAM,freestone,31.78915,-96.465231,3,1,Region
WYLIE,collin,33.009604,-96.572214,1,3,Region
WYLIE EAST,collin,33.016032,-96.495785,2,3,Region
YOAKUM,dewitt,29.290327,-97.159198,4,3,Region
YORKTOWN,dewitt,28.979478,-97.507562,4,2,Region
YSLETA,el paso,31.700124,-106.340765,1,4,Region
ZAPATA,zapata,26.92619,-99.247211,4,3,Region
ABERNATHY,hale,33.83135,-101.847263,0,2,State
ACADEMY,bell,30.982934,-97.345646,0,1,State
ALEDO,parker,32.712426,-97.61627,0,4,State
ALLEN,collin,33.109586,-96.660852,0,5,State
ALPINE,brewster,30.371983,-103.665798,0,2,State
ANDREWS,andrews,32.325672,-102.56782,0,3,State
ARCHER CITY,archer,33.589093,-98.630853,0,1,State
ARGYLE,denton,33.107167,-97.185452,0,2,State
ASPERMONT,stonewall,33.138517,-100.221872,0,1,State
ATHENS,henderson,32.200569,-95.845354,0,4,State
AUSTIN,harris,29.732475,-95.332135,0,4,State
AVERY,red river,33.552444,-94.786687,0,1,State
AZLE,tarrant,32.914211,-97.540027,0,4,State
BALLINGER,runnels,31.750912,-99.974986,0,2,State
BELLVILLE,austin,29.924677,-96.251938,0,3,State
BIRDVILLE,tarrant,32.861039,-97.19123,0,4,State
BLANCO,blanco,30.099655,-98.431324,0,2,State
BOERNE,kendall,29.799156,-98.710688,0,3,State
BORGER,hutchinson,35.665825,-101.397093,0,3,State
BOSWELL,tarrant,32.878134,-97.413054,0,5,State
BRACKETT,kinney,29.315452,-100.412981,0,1,State
BRIDGE CITY,orange,30.038347,-93.821471,0,3,State
BRIDGEPORT,wise,33.211078,-97.736209,0,3,State
BROCK,parker,32.676258,-97.942512,0,2,State
BUNA,jasper,30.430632,-93.95726,0,2,State
BURKBURNETT,wichita,34.081094,-98.572901,0,3,State
CADDO MILLS,hunt,33.079599,-96.228791,0,2,State
CALHOUN,calhoun,28.62077,-96.642061,0,4,State
CALLISBURG,cooke,33.70172,-97.01173,0,2,State
CANADIAN,hemphill,35.908907,-100.385219,0,2,State
CANTON,comal,29.685145,-98.132495,0,3,State
CANUTILLO,el paso,31.897117,-106.58471,0,4,State
CARRIZO SPRINGS,dimmit,28.518902,-99.839834,0,3,State
CARROLL,nueces,27.719114,-97.403744,0,5,State
CEDAR PARK,williamson,30.471867,-97.843371,0,4,State
CENTER,shelby,31.803862,-94.20064,0,3,State
CENTRAL,tom green,31.46379,-100.450691,0,6,State
CHAPEL HILL,titus,33.111064,-94.885474,0,2,State
CHISUM,lamar,33.626189,-95.564523,0,2,State
CLARENDON,donley,34.939657,-100.898735,0,1,State
CLEMENTS,fort bend,29.575142,-95.633167,0,5,State
CLIFTON,bosque,31.788739,-97.590441,0,3,State
COLLEGE STATION,brazos,30.59275,-96.321641,0,3,State
COPPELL,dallas,32.974672,-96.998599,0,6,State
CORONADO,lubbock,33.564022,-101.917481,0,5,State
"CORONADO,",lubbock,33.564022,-101.917481,0,5,State
CROSS PLAINS,callahan,32.131342,-99.16478,0,1,State
CROWLEY,tarrant,32.57833,-97.375702,0,4,State
CUERO,dewitt,29.09014,-97.28004,0,3,State
CYPRESS CREEK,harris,29.965823,-95.565165,0,5,State
CYPRESS FALLS,harris,29.918588,-95.631662,0,5,State
CYPRESS WOODS,harris,29.971016,-95.681547,0,5,State
DAINGERFIELD,morris,33.014536,-94.718007,0,3,State
DAWSON,navarro,31.897555,-96.710343,0,4,State
DAYTON,liberty,30.064554,-94.90533,0,4,State
DEL VALLE,el paso,31.692468,-106.296371,0,4,State
DENTON,denton,33.224883,-97.145326,0,4,State
DENVER CITY,yoakum,32.970936,-102.837045,0,2,State
DRIPPING SPRINGS,hays,30.19823,-98.100971,0,4,State
DULLES,fort bend,29.619752,-95.584542,0,5,State
DUNBAR,tarrant,32.719218,-97.231946,0,4,State
EDINBURG NORTH,hidalgo,26.331969,-98.158439,0,5,State
EL PASO,el paso,31.772886,-106.491063,0,4,State
ELKHART,anderson,31.628009,-95.581854,0,2,State
FAIRFIELD,freestone,31.717472,-96.141402,0,3,State
FALFURRIAS,brooks,27.232359,-98.152502,0,3,State
FLOUR BLUFF,nueces,27.644397,-97.295932,0,4,State
FLOWER MOUND,denton,33.033076,-97.081547,0,5,State
FLOYDADA,floyd,33.979161,-101.346551,0,2,State
FORNEY,kaufman,32.736524,-96.468384,0,4,State
FORSAN,howard,32.11195,-101.3687,0,1,State
FRANKLIN,robertson,31.022579,-96.50138,0,2,State
FREDERICKSBURG,gillespie,30.260366,-98.881777,0,4,State
FRENSHIP,lubbock,33.51793,-102.012421,0,4,State
FRIENDSWOOD,galveston,29.510802,-95.209882,0,4,State
FRUITVALE,van zandt,32.684515,-95.801628,0,1,State
GAINESVILLE,cooke,33.603991,-97.159367,0,4,State
GARDEN CITY,glasscock,31.866378,-101.48482,0,1,State
GARLAND,dallas,32.91015,-96.646812,0,6,State
GEORGE WEST,live oak,28.329083,-98.1216,0,2,State
GLEN ROSE,somervell,32.231576,-97.765328,0,3,State
GOLIAD,goliad,28.677255,-97.394153,0,3,State
GONZALES,gonzales,29.521521,-97.438463,0,3,State
GOOSE CREEK MEMORIAL,harris,29.823853,-94.968571,0,5,State
GRAND SALINE,van zandt,32.685533,-95.713811,0,3,State
GRANDVIEW,johnson,32.263475,-97.176234,0,2,State
GRAPEVINE,tarrant,32.91568,-97.119021,0,5,State
GREGORY-PORTLAND,san patricio,27.903467,-97.323406,0,4,State
GRUVER,hansford,36.261648,-101.400335,0,2,State
HALLETTSVILLE,lavaca,29.447363,-96.935069,0,2,State
HALLSVILLE,harrison,32.5147,-94.590751,0,4,State
HAMSHIRE-FANNETT,jefferson,29.862641,-94.3144,0,3,State
HARMONY,upshur,32.754279,-95.108978,0,2,State
HARMONY SCIENCE ACADEMY,harris,29.679907,-95.558958,0,1,State
"HARMONY SCIENCE ACADEMY,",harris,29.679907,-95.558958,0,1,State
HARPER,gillespie,30.301925,-99.244797,0,1,State
HASKELL,haskell,33.163528,-99.733197,0,1,State
HEBRON,denton,33.035521,-96.858636,0,4,State
HEMPHILL,sabine,31.346412,-93.847049,0,2,State
HERITAGE,collin,33.17709,-96.754511,0,4,State
HIGH ISLAND,galveston,29.563727,-94.390309,0,1,State
HIGHLAND PARK,potter,35.250132,-101.654804,0,4,State
HIRSCHI,wichita,33.933954,-98.528622,0,3,State
HOLLIDAY,archer,33.810669,-98.689016,0,2,State
HONEY GROVE,fannin,33.591358,-95.900085,0,1,State
IDALOU,lubbock,33.65992,-101.683182,0,2,State
INDUSTRIAL,jackson,28.819352,-96.615769,0,2,State
JARRELL,williamson,30.81484,-97.627411,0,2,State
JAY,nueces,27.753053,-97.394459,0,5,State
JIM NED,taylor,32.213199,-99.797673,0,2,State
JOURDANTON,atascosa,28.90855,-98.53974,0,2,State
JUAREZ LINCOLN,hidalgo,26.328461,-98.39881,0,4,State
KELLER,tarrant,32.939775,-97.23284,0,5,State
KENNEDALE,tarrant,32.652528,-97.19877,0,3,State
KING,nueces,27.718759,-97.370808,0,5,State
KLEIN,harris,30.019784,-95.523551,0,5,State
KLEIN OAK,harris,30.096835,-95.518429,0,4,State
KRUM,denton,33.264058,-97.226873,0,2,State
LA FERIA,cameron,26.16457,-97.82841,0,3,State
LA GRANGE,fayette,29.901872,-96.865098,0,3,State
LA JOYA,hidalgo,26.252828,-98.471061,0,5,State
LA VERNIA,wilson,29.351514,-98.123041,0,3,State
LAGO VISTA,travis,30.44083,-97.97971,0,2,State
LAKE TRAVIS,travis,30.327406,-97.969977,0,4,State
LAMAR,harris,29.740249,-95.426211,0,5,State
LATEXO,houston,31.394522,-95.472877,0,1,State
LIBERTY,liberty,30.074786,-94.787879,0,3,State
LIBERTY HILL,williamson,30.680323,-97.953654,0,3,State
LINDALE,smith,32.514253,-95.396751,0,3,State
LINDSAY,cooke,33.6366,-97.2373,0,1,State
LOCKNEY,floyd,34.12102,-101.446508,0,1,State
LONE OAK,hunt,32.986056,-95.931176,0,2,State
LOVEJOY,collin,33.101881,-96.613431,0,3,State
LUBBOCK,lubbock,33.578611,-101.860861,0,5,State
"LUBBOCK,",lubbock,33.578611,-101.860861,0,5,State
MACARTHUR,bexar,29.5293,-98.44085,0,5,State
MAGNOLIA,montgomery,30.227815,-95.687105,0,5,State
MARTIN,webb,27.518485,-99.505431,0,5,State
MCGREGOR,mclennan,31.427047,-97.405031,0,2,State
MCLEOD,cass,32.948789,-94.083276,0,1,State
MEDINA VALLEY,medina,29.344272,-98.839257,0,4,State
MELISSA,collin,33.291097,-96.576374,0,3,State
"MEMORIAL,",harris,29.780637,-95.523794,0,5,State
MIDLOTHIAN,ellis,32.49141,-96.993961,0,4,State
MIDWAY,mclennan,31.483524,-97.199404,0,1,State
MONTGOMERY,montgomery,30.387458,-95.721473,0,4,State
MOULTON,lavaca,29.57887,-97.147471,0,1,State
MOUNT PLEASANT,titus,33.177269,-94.990102,0,4,State
MUENSTER,cooke,33.656091,-97.374628,0,1,State
MULESHOE,bailey,34.226205,-102.728625,0,3,State
NACOGDOCHES,nacogdoches,31.643311,-94.621646,0,4,State
NAVASOTA,grimes,30.400588,-96.06911,0,3,State
NEDERLAND,jefferson,29.982055,-94.011981,0,4,State
NEEDVILLE,fort bend,29.37069,-95.80059,0,3,State
NEW BOSTON,bowie,33.456898,-94.420033,0,3,State
NEW WAVERLY,walker,30.523605,-95.486234,0,3,State
ORE CITY,upshur,32.807173,-94.720556,0,2,State
OZONA,crockett,30.713734,-101.201105,0,2,State
PALESTINE,anderson,31.738192,-95.604569,0,3,State
PASCHAL,tarrant,32.707873,-97.350733,0,5,State
PEARCE,dallas,32.972643,-96.768258,0,4,State
PEWITT,morris,33.185449,-94.711213,0,2,State
PILOT POINT,denton,33.410711,-96.947887,0,3,State
PINE TREE,gregg,32.515781,-94.780685,0,4,State
PLAINS,yoakum,33.189068,-102.82558,0,1,State
PLANO,llano,30.732967,-98.681851,0,5,State
PLANO SR,collin,33.029036,-96.752083,0,5,State
PONDER,denton,33.185284,-97.291466,0,2,State
POOLVILLE,parker,32.972401,-97.860985,0,1,State
PORT ARANSAS,nueces,27.83238,-97.060292,0,1,State
PRAIRILAND,lamar,33.573413,-95.392665,0,2,State
QUEEN CITY,cass,33.149998,-94.137393,0,2,State
RANDALL,randall,35.11391,-101.899488,0,4,State
RANDOLPH,bexar,29.527682,-98.295646,0,2,State
REAGAN,bexar,29.619263,-98.488156,0,5,State
REFUGIO,refugio,28.314549,-97.275031,0,2,State
RICHARDSON,dallas,32.951842,-96.762249,0,6,State
ROCKPORT-FULTON,aransas,28.04139,-97.04492,0,4,State
ROMA,starr,26.443172,-99.026311,0,5,State
RUSK,cherokee,31.781633,-95.143978,0,3,State
RYAN,denton,33.211542,-97.075864,0,5,State
SABINE,gregg,32.446246,-94.951818,0,3,State
SALADO,bell,30.9663,-97.538861,0,2,State
SAN AUGUSTINE,san augustine,31.535399,-94.099797,0,1,State
SAN ISIDRO,starr,26.71702,-98.453559,0,1,State
SANTA GERTRUDIS ACADEMY,kleberg,27.522454,-97.881569,0,3,State
SAVOY,fannin,33.601052,-96.369234,0,1,State
SEALY,austin,29.762086,-96.17435,0,3,State
SEGUIN,guadalupe,29.575921,-97.947206,0,4,State
SEMINOLE,gaines,32.722953,-102.670232,0,3,State
SEVEN LAKES,fort bend,29.707876,-95.80752,0,4,State
SHALLOWATER,lubbock,33.694644,-101.991052,0,2,State
SHARYLAND,hidalgo,26.21239,-98.284048,0,5,State
SHINER,lavaca,29.445729,-97.184692,0,1,State
SILSBEE,hardin,30.344707,-94.148121,0,3,State
SNYDER,scurry,32.702533,-100.929153,0,3,State
SOMERSET,bexar,29.229111,-98.650833,0,3,State
SOUTH GRAND PRAIRIE,dallas,32.695314,-97.005577,0,5,State
SPRING HILL,gregg,32.564389,-94.795315,0,3,State
SPURGER,tyler,30.69517,-94.178587,0,1,State
STAFFORD,jones,32.940139,-99.793332,0,3,State
STOCKDALE,wilson,29.230528,-97.961084,0,2,State
SUDAN,lamb,34.063059,-102.529376,0,1,State
SUNDOWN,hockley,33.4599,-102.485968,0,1,State
SWEENY,brazoria,29.0497,-95.70536,0,3,State
TAYLOR,williamson,30.54928,-97.431261,0,5,State
THORNDALE,milam,30.616197,-97.206589,0,1,State
THRALL,williamson,30.589694,-97.295725,0,2,State
TOLAR,hood,32.381971,-97.931932,0,2,State
TOMBALL MEMORIAL,harris,30.033813,-95.634521,0,3,State
TRENTON,fannin,33.426788,-96.341188,0,1,State
VALLEY VIEW,cooke,33.481167,-97.161779,0,1,State
VAN,van zandt,32.535657,-95.638351,0,4,State
VANDEGRIFT,travis,30.39665,-97.826601,0,5,State
VEGA,oldham,35.25021,-102.41886,0,1,State
VELA,oldham,35.25021,-102.41886,0,5,State
VETERANS MEMORIAL,hidalgo,26.24196,-98.315393,0,4,State
